{
"type": "FeatureCollection",
"name": "Gas_Stations",
"crs": { "type": "name", "properties": { "name": "urn:ogc:def:crs:OGC:1.3:CRS84" } },
"features": [
{ "type": "Feature", "properties": { "OBJECTID": 119738, "BusinessName": "2150 CLAIBORNE SHELL", "Address": "2150 S CLAIBORNE AVE", "Suite": null, "City": "NEW ORLEANS", "State": "LA", "Zip": "70125", "PhoneNumber": "504-606-3076", "BusinessType": "1131 - GASOLINE STATIONS W/CONVENIENCE STORES", "OwnerName": "2150 CLAIBORNE SHELL, LLC", "LocationX": "3674782.14069", "LocationY": "527649.191615" }, "geometry": { "type": "Point", "coordinates": [ -90.089421236375514, 29.945059915894344 ] } },
{ "type": "Feature", "properties": { "OBJECTID": 119739, "BusinessName": "4600 DE GAULLE LLC", "Address": "4600 GENERAL DE GAULLE DR", "Suite": null, "City": "NEW ORLEANS", "State": "LA", "Zip": "70131", "PhoneNumber": "(504)428-4146", "BusinessType": "1131 - GASOLINE STATIONS W/CONVENIENCE STORES", "OwnerName": "4600 GEN GAULLE LLC", "LocationX": "3700715.35709", "LocationY": "517921.405942" }, "geometry": { "type": "Point", "coordinates": [ -90.007897834288798, 29.917512281678718 ] } },
{ "type": "Feature", "properties": { "OBJECTID": 119740, "BusinessName": "BIG EASY TRAVEL PLAZA", "Address": "5000 OLD GENTILLY RD", "Suite": "STE:B", "City": "NEW ORLEANS", "State": "LA", "Zip": "70126", "PhoneNumber": "504-943-5000", "BusinessType": "1131 - GASOLINE STATIONS W/CONVENIENCE STORES", "OwnerName": "MALONEY SEPT LLC.", "LocationX": "3692600.21705", "LocationY": "549635.427987" }, "geometry": { "type": "Point", "coordinates": [ -90.032376124938267, 30.004970349264621 ] } },
{ "type": "Feature", "properties": { "OBJECTID": 119741, "BusinessName": "BIRDIES ON BROAD", "Address": "1233 N BROAD ST", "Suite": null, "City": "NEW ORLEANS", "State": "LA", "Zip": "70119", "PhoneNumber": null, "BusinessType": "1131 - GASOLINE STATIONS W/CONVENIENCE STORES", "OwnerName": "BIRDIES ON BROAD,LLC", "LocationX": "3678011.8148", "LocationY": "538848.458121" }, "geometry": { "type": "Point", "coordinates": [ -90.078837022451722, 29.975757317364888 ] } },
{ "type": "Feature", "properties": { "OBJECTID": 119742, "BusinessName": "BROTHER FOOD MART NO. 136", "Address": "3622 GENERAL DE GAULLE DR", "Suite": null, "City": "NEW ORLEANS", "State": "LA", "Zip": "70114", "PhoneNumber": "504-366-2413", "BusinessType": "1101 - CONVENIENCE STORES", "OwnerName": "EXXON GENERAL DEGAULLE, LLC", "LocationX": "3697320.45155", "LocationY": "520253.142776" }, "geometry": { "type": "Point", "coordinates": [ -90.018529134677607, 29.924031311429832 ] } },
{ "type": "Feature", "properties": { "OBJECTID": 119743, "BusinessName": "BROTHER TEXACO", "Address": "3501 GENERAL MEYER AVE", "Suite": null, "City": "NEW ORLEANS", "State": "LA", "Zip": "70114", "PhoneNumber": "504-361-3920", "BusinessType": "1131 - GASOLINE STATIONS W/CONVENIENCE STORES", "OwnerName": "MEHMOOD INC", "LocationX": "3697169.70141", "LocationY": "525565.256701" }, "geometry": { "type": "Point", "coordinates": [ -90.018812626966479, 29.938642558479621 ] } },
{ "type": "Feature", "properties": { "OBJECTID": 119744, "BusinessName": "BROTHERS FOOD MART NO 122", "Address": "1926 NEWTON ST", "Suite": null, "City": "NEW ORLEANS", "State": "LA", "Zip": "70114", "PhoneNumber": "504-366-2413", "BusinessType": "1101 - CONVENIENCE STORES", "OwnerName": "NEWTON BROTHERS INC", "LocationX": "3691331.988", "LocationY": "527855.937343" }, "geometry": { "type": "Point", "coordinates": [ -90.037161039213856, 29.945124003810186 ] } },
{ "type": "Feature", "properties": { "OBJECTID": 119745, "BusinessName": "BROWN DERBY SUPERSTORE", "Address": "3402 TULANE AVE", "Suite": null, "City": "NEW ORLEANS", "State": "LA", "Zip": "70119", "PhoneNumber": null, "BusinessType": "1131 - GASOLINE STATIONS W/CONVENIENCE STORES", "OwnerName": "BROWN DERBY SUPERSTORE INC", "LocationX": "3671558.63348", "LocationY": "534909.761926" }, "geometry": { "type": "Point", "coordinates": [ -90.099351998936868, 29.965119915228744 ] } },
{ "type": "Feature", "properties": { "OBJECTID": 119746, "BusinessName": "BROWON DERBY FUEL MART", "Address": "617 N BROAD ST", "Suite": null, "City": "NEW ORLEANS", "State": "LA", "Zip": "70119", "PhoneNumber": null, "BusinessType": "1131 - GASOLINE STATIONS W/CONVENIENCE STORES", "OwnerName": "OTTALLAH 4,INC", "LocationX": "3676346.00501", "LocationY": "536816.5458" }, "geometry": { "type": "Point", "coordinates": [ -90.084168083774685, 29.970220293931398 ] } },
{ "type": "Feature", "properties": { "OBJECTID": 119747, "BusinessName": "BULLARD CHEVRON", "Address": "5701 BULLARD AVE", "Suite": null, "City": "NEW ORLEANS", "State": "LA", "Zip": "70128", "PhoneNumber": "504-279-6013", "BusinessType": "1131 - GASOLINE STATIONS W/CONVENIENCE STORES", "OwnerName": "BULLARD CHEVRON, INC", "LocationX": "3716983.38597", "LocationY": "562443.001631" }, "geometry": { "type": "Point", "coordinates": [ -89.954858808665676, 30.039402348485169 ] } },
{ "type": "Feature", "properties": { "OBJECTID": 119748, "BusinessName": "BULLARD CHEVRON", "Address": "7020 BULLARD AVE", "Suite": null, "City": "NEW ORLEANS", "State": "LA", "Zip": "70128", "PhoneNumber": "504-941-5148", "BusinessType": "1142 - GASOLINE STATIONS, OTHER", "OwnerName": "TWO BROTHERS VENTURES LLC", "LocationX": "3714425.70533", "LocationY": "565375.02621" }, "geometry": { "type": "Point", "coordinates": [ -89.962830923535719, 30.047548586709766 ] } },
{ "type": "Feature", "properties": { "OBJECTID": 119749, "BusinessName": "CANAL STORE #150", "Address": "2701 CANAL ST", "Suite": null, "City": "NEW ORLEANS", "State": "LA", "Zip": "70119", "PhoneNumber": null, "BusinessType": "1131 - GASOLINE STATIONS W/CONVENIENCE STORES", "OwnerName": "2701 CANAL STREET LLC", "LocationX": "3675309.15048", "LocationY": "535276.497158" }, "geometry": { "type": "Point", "coordinates": [ -90.0874954657546, 29.966016720878518 ] } },
{ "type": "Feature", "properties": { "OBJECTID": 119750, "BusinessName": "CHEF CHEVRON", "Address": "13301 CHEF MENTEUR HWY", "Suite": null, "City": "NEW ORLEANS", "State": "LA", "Zip": "70129", "PhoneNumber": "504-254-8984", "BusinessType": "1101 - CONVENIENCE STORES", "OwnerName": "TRAN FAMILY VENTURES, LLC", "LocationX": "3725700.88537", "LocationY": "559802.700125" }, "geometry": { "type": "Point", "coordinates": [ -89.927411706044026, 30.031851359283426 ] } },
{ "type": "Feature", "properties": { "OBJECTID": 119751, "BusinessName": "CHEF DISCOUNT MARKET", "Address": "10833 CHEF MENTEUR HWY", "Suite": null, "City": "NEW ORLEANS", "State": "LA", "Zip": "70127", "PhoneNumber": "901-271-2282", "BusinessType": "1131 - GASOLINE STATIONS W/CONVENIENCE STORES", "OwnerName": "SHREE BAJRANG, LLC", "LocationX": "3715583.61061", "LocationY": "555746.696089" }, "geometry": { "type": "Point", "coordinates": [ -89.959536188256749, 30.021036409390035 ] } },
{ "type": "Feature", "properties": { "OBJECTID": 119752, "BusinessName": "CHEF EXPRESS", "Address": "6601 CHEF MENTEUR HWY", "Suite": null, "City": "NEW ORLEANS", "State": "LA", "Zip": "70122", "PhoneNumber": null, "BusinessType": "1131 - GASOLINE STATIONS W/CONVENIENCE STORES", "OwnerName": "CHEF EXPRESS.LLC", "LocationX": "3699080.57975", "LocationY": "551994.204438" }, "geometry": { "type": "Point", "coordinates": [ -90.011817501973951, 30.011252200004829 ] } },
{ "type": "Feature", "properties": { "OBJECTID": 119753, "BusinessName": "CHEF MENTEUR SHELL", "Address": "9232 CHEF MENTEUR HWY", "Suite": null, "City": "NEW ORLEANS", "State": "LA", "Zip": "70127", "PhoneNumber": "504-982-6291", "BusinessType": "1131 - GASOLINE STATIONS W/CONVENIENCE STORES", "OwnerName": "WYNVIA FOUR INC", "LocationX": "3709790.62475", "LocationY": "553757.983319" }, "geometry": { "type": "Point", "coordinates": [ -89.977914531493937, 30.015757924367897 ] } },
{ "type": "Feature", "properties": { "OBJECTID": 119754, "BusinessName": "CIRCLE K #2707672", "Address": "704 HOWARD AVE", "Suite": null, "City": "NEW ORLEANS", "State": "LA", "Zip": "70130", "PhoneNumber": "504-586-3042", "BusinessType": "1101 - CONVENIENCE STORES", "OwnerName": "CIRCLE K STORES, INC.", "LocationX": "3679930.89691", "LocationY": "527142.464447" }, "geometry": { "type": "Point", "coordinates": [ -90.073182612543121, 29.943511889095394 ] } },
{ "type": "Feature", "properties": { "OBJECTID": 119755, "BusinessName": "CIRCLE K #2707673", "Address": "3725 S CARROLLTON AVE", "Suite": null, "City": "NEW ORLEANS", "State": "LA", "Zip": "70118", "PhoneNumber": "504-486-8377", "BusinessType": "1101 - CONVENIENCE STORES", "OwnerName": "CIRCLE K STORES, INC.", "LocationX": "3668191.0434", "LocationY": "534912.625286" }, "geometry": { "type": "Point", "coordinates": [ -90.109986602005037, 29.96522707860758 ] } },
{ "type": "Feature", "properties": { "OBJECTID": 119756, "BusinessName": "CITY PARK SHELL", "Address": "3494 ESPLANADE AVE", "Suite": null, "City": "NEW ORLEANS", "State": "LA", "Zip": "70119", "PhoneNumber": null, "BusinessType": "1131 - GASOLINE STATIONS W/CONVENIENCE STORES", "OwnerName": "OTTALLAH 3 INC", "LocationX": "3674769.03925", "LocationY": "541478.8203" }, "geometry": { "type": "Point", "coordinates": [ -90.088988419457621, 29.983087134974131 ] } },
{ "type": "Feature", "properties": { "OBJECTID": 119757, "BusinessName": "CLAIBORNE #165", "Address": "4101 S CLAIBORNE AVE", "Suite": null, "City": "NEW ORLEANS", "State": "LA", "Zip": "70125", "PhoneNumber": null, "BusinessType": "1101 - CONVENIENCE STORES", "OwnerName": "SOUTH CLAIBORNE OPERATIONS", "LocationX": "3671379.5771", "LocationY": "526074.821438" }, "geometry": { "type": "Point", "coordinates": [ -90.100217704487648, 29.940832037625512 ] } },
{ "type": "Feature", "properties": { "OBJECTID": 119758, "BusinessName": "CLAIBORNE EXPRESS", "Address": "1249 N CLAIBORNE AVE", "Suite": null, "City": "NEW ORLEANS", "State": "LA", "Zip": "70116", "PhoneNumber": "504-220-0005", "BusinessType": "1142 - GASOLINE STATIONS, OTHER", "OwnerName": "MUNTHER, LLC", "LocationX": "3681130.01032", "LocationY": "536579.285319" }, "geometry": { "type": "Point", "coordinates": [ -90.069067961703965, 29.969423635649886 ] } },
{ "type": "Feature", "properties": { "OBJECTID": 119759, "BusinessName": "COSTCO GASOLINE #1147", "Address": "3800 S CARROLLTON AVE", "Suite": null, "City": "NEW ORLEANS", "State": "LA", "Zip": "70118", "PhoneNumber": "504-483-9001", "BusinessType": "1142 - GASOLINE STATIONS, OTHER", "OwnerName": "COSTCO WHOLESALE CORPORATION", "LocationX": "3668219.71425", "LocationY": "535411.318918" }, "geometry": { "type": "Point", "coordinates": [ -90.109879245303404, 29.966597479719994 ] } },
{ "type": "Feature", "properties": { "OBJECTID": 119760, "BusinessName": "CROWDER CHEVRON", "Address": "7000 CROWDER BLVD", "Suite": null, "City": "NEW ORLEANS", "State": "LA", "Zip": "70127", "PhoneNumber": null, "BusinessType": "1131 - GASOLINE STATIONS W/CONVENIENCE STORES", "OwnerName": "LILY & COMPANY, LLC", "LocationX": "3704342.0833", "LocationY": "559373.338333" }, "geometry": { "type": "Point", "coordinates": [ -89.994922090616043, 30.031374073576497 ] } },
{ "type": "Feature", "properties": { "OBJECTID": 119761, "BusinessName": "DAVIS STORE 153", "Address": "1308 S NORMAN C FRANCIS PKWY", "Suite": null, "City": "NEW ORLEANS", "State": "LA", "Zip": "70125", "PhoneNumber": null, "BusinessType": "1131 - GASOLINE STATIONS W/CONVENIENCE STORES", "OwnerName": "1308 JEFFERSON DAVIS LLC", "LocationX": "3669913.78234", "LocationY": "531823.220355" }, "geometry": { "type": "Point", "coordinates": [ -90.104650882299012, 29.956681551614743 ] } },
{ "type": "Feature", "properties": { "OBJECTID": 119762, "BusinessName": "DAY & NIGHT DISCOUNT #2", "Address": "10422 CHEF MENTEUR HWY", "Suite": "B", "City": "NEW ORLEANS", "State": "LA", "Zip": "70127", "PhoneNumber": "504-248-7340", "BusinessType": "1131 - GASOLINE STATIONS W/CONVENIENCE STORES", "OwnerName": "DAY & NICHT, LLC", "LocationX": "3714387.12146", "LocationY": "555106.960281" }, "geometry": { "type": "Point", "coordinates": [ -89.963340880636679, 30.019316778143288 ] } },
{ "type": "Feature", "properties": { "OBJECTID": 119763, "BusinessName": "DELTA FUEL PLUS", "Address": "3300 S CLAIBORNE AVE", "Suite": null, "City": "NEW ORLEANS", "State": "LA", "Zip": "70125", "PhoneNumber": "504-895-1126", "BusinessType": "1131 - GASOLINE STATIONS W/CONVENIENCE STORES", "OwnerName": "DELTA FUEL MANAGEMENT LLC", "LocationX": "3672553.49697", "LocationY": "526110.318398" }, "geometry": { "type": "Point", "coordinates": [ -90.09651021486556, 29.940894853892381 ] } },
{ "type": "Feature", "properties": { "OBJECTID": 119764, "BusinessName": "DIAMOND DISCOUNT", "Address": "15200 CHEF MENTEUR", "Suite": null, "City": "NEW ORLEANS", "State": "LA", "Zip": "70129", "PhoneNumber": null, "BusinessType": "1131 - GASOLINE STATIONS W/CONVENIENCE STORES", "OwnerName": "DIAMOND DISCOUNT LLC", "LocationX": "3678691.8167", "LocationY": "530187.70942" }, "geometry": { "type": "Point", "coordinates": [ -90.076989294556824, 29.951922709288411 ] } },
{ "type": "Feature", "properties": { "OBJECTID": 119765, "BusinessName": "DIAZ MARKET RIVERBEND", "Address": "600 S CARROLLTON AVE", "Suite": null, "City": "NEW ORLEANS", "State": "LA", "Zip": "70118", "PhoneNumber": "504-832-2165", "BusinessType": "1131 - GASOLINE STATIONS W/CONVENIENCE STORES", "OwnerName": "DIAZ II, INC.", "LocationX": "3660604.32384", "LocationY": "526908.205566" }, "geometry": { "type": "Point", "coordinates": [ -90.134209735551309, 29.943438034534299 ] } },
{ "type": "Feature", "properties": { "OBJECTID": 119766, "BusinessName": "DISCOUNT -N- OUT", "Address": "6050 CHEF MENTEUR HWY", "Suite": null, "City": "NEW ORLEANS", "State": "LA", "Zip": "70126", "PhoneNumber": "504-248-5772", "BusinessType": "1131 - GASOLINE STATIONS W/CONVENIENCE STORES", "OwnerName": "DISCOUNT -N- OUT, LLC", "LocationX": "3697205.01143", "LocationY": "551152.817493" }, "geometry": { "type": "Point", "coordinates": [ -90.017773670881752, 30.008998044945777 ] } },
{ "type": "Feature", "properties": { "OBJECTID": 119767, "BusinessName": "DISCOUNT BROAD CENTER", "Address": "3303 S BROAD STREET", "Suite": null, "City": "NEW ORLEANS", "State": "LA", "Zip": "70125", "PhoneNumber": null, "BusinessType": "1131 - GASOLINE STATIONS W/CONVENIENCE STORES", "OwnerName": "DISCOUNT BROAD CENTER, LLC", "LocationX": "3678691.8167", "LocationY": "530187.70942" }, "geometry": { "type": "Point", "coordinates": [ -90.076989294556824, 29.951922709288411 ] } },
{ "type": "Feature", "properties": { "OBJECTID": 119768, "BusinessName": "DISCOUNT CITY", "Address": "2013 S CLAIBORNE AVE", "Suite": "D", "City": "NEW ORLEANS", "State": "LA", "Zip": "70125", "PhoneNumber": null, "BusinessType": "1101 - CONVENIENCE STORES", "OwnerName": "T & HO LLC", "LocationX": "3674831.07694", "LocationY": "528137.760063" }, "geometry": { "type": "Point", "coordinates": [ -90.089249979978192, 29.94640185686514 ] } },
{ "type": "Feature", "properties": { "OBJECTID": 119769, "BusinessName": "DISCOUNT EAST", "Address": "4901 DOWNMAN RD", "Suite": null, "City": "NEW ORLEANS", "State": "LA", "Zip": "70126", "PhoneNumber": "504-244-7301", "BusinessType": "1131 - GASOLINE STATIONS W/CONVENIENCE STORES", "OwnerName": "DISCOUNT EAST, LLC", "LocationX": "3695993.59856", "LocationY": "554711.652248" }, "geometry": { "type": "Point", "coordinates": [ -90.021472182280462, 30.018821694663412 ] } },
{ "type": "Feature", "properties": { "OBJECTID": 119770, "BusinessName": "DISCOUNT ZONE", "Address": "12930 CHEF MENTEUR HWY", "Suite": null, "City": "NEW ORLEANS", "State": "LA", "Zip": "70129", "PhoneNumber": "504-780-8300", "BusinessType": "1131 - GASOLINE STATIONS W/CONVENIENCE STORES", "OwnerName": "510 DISCOUNT ZONE LLC", "LocationX": "3724137.81107", "LocationY": "558588.727004" }, "geometry": { "type": "Point", "coordinates": [ -89.93239794369353, 30.028566069051987 ] } },
{ "type": "Feature", "properties": { "OBJECTID": 119771, "BusinessName": "DISCOUNT ZONE", "Address": "1400 S CARROLLTON AVE", "Suite": null, "City": "NEW ORLEANS", "State": "LA", "Zip": "70118", "PhoneNumber": "504-480-8300", "BusinessType": "1131 - GASOLINE STATIONS W/CONVENIENCE STORES", "OwnerName": "CARROLLTON DISCOUNT ZONE, LLC", "LocationX": "3662471.73075", "LocationY": "528955.204864" }, "geometry": { "type": "Point", "coordinates": [ -90.128245847529598, 29.94901276098074 ] } },
{ "type": "Feature", "properties": { "OBJECTID": 119772, "BusinessName": "DISCOUNT ZONE", "Address": "1533 ESPLANADE AVE", "Suite": null, "City": "NEW ORLEANS", "State": "LA", "Zip": "70116", "PhoneNumber": null, "BusinessType": "1142 - GASOLINE STATIONS, OTHER", "OwnerName": "AR MART LLC", "LocationX": "3681429.45404", "LocationY": "536549.216455" }, "geometry": { "type": "Point", "coordinates": [ -90.068123343534864, 29.969331868637003 ] } },
{ "type": "Feature", "properties": { "OBJECTID": 119773, "BusinessName": "DISCOUNT ZONE", "Address": "1533 ESPLANADE AVE", "Suite": null, "City": "NEW ORLEANS", "State": "LA", "Zip": "70116", "PhoneNumber": "504-236-8095", "BusinessType": "1131 - GASOLINE STATIONS W/CONVENIENCE STORES", "OwnerName": "SPUR DISCOUNT STORE #3  INC", "LocationX": "3681429.45404", "LocationY": "536549.216455" }, "geometry": { "type": "Point", "coordinates": [ -90.068123343534864, 29.969331868637003 ] } },
{ "type": "Feature", "properties": { "OBJECTID": 119774, "BusinessName": "DISCOUNT ZONE, INC", "Address": "3434 ST CHARLES AVE", "Suite": null, "City": "NEW ORLEANS", "State": "LA", "Zip": "70115", "PhoneNumber": "504-258-1222", "BusinessType": "1131 - GASOLINE STATIONS W/CONVENIENCE STORES", "OwnerName": "FAST TRUCK, INC", "LocationX": "3673974.62644", "LocationY": "521289.704697" }, "geometry": { "type": "Point", "coordinates": [ -90.092188302809632, 29.927597472845168 ] } },
{ "type": "Feature", "properties": { "OBJECTID": 119775, "BusinessName": "DOWNMAN SHELL", "Address": "3901 DOWNMAN RD", "Suite": null, "City": "NEW ORLEANS", "State": "LA", "Zip": "70126", "PhoneNumber": "504-982-6291", "BusinessType": "1131 - GASOLINE STATIONS W/CONVENIENCE STORES", "OwnerName": "WYNVINA SIX, INC", "LocationX": "3696292.92906", "LocationY": "551725.698581" }, "geometry": { "type": "Point", "coordinates": [ -90.020634493329936, 30.010602017097018 ] } },
{ "type": "Feature", "properties": { "OBJECTID": 119776, "BusinessName": "ELYSIAN 166", "Address": "3101 ELYSIAN FIELDS AVE", "Suite": null, "City": "NEW ORLEANS", "State": "LA", "Zip": "70122", "PhoneNumber": null, "BusinessType": "1131 - GASOLINE STATIONS W/CONVENIENCE STORES", "OwnerName": "ELYSIAN FIELDS OPERATIONS NO.1, LLC", "LocationX": "3684496.30735", "LocationY": "544270.927951" }, "geometry": { "type": "Point", "coordinates": [ -90.05816661458131, 29.990470398866435 ] } },
{ "type": "Feature", "properties": { "OBJECTID": 119777, "BusinessName": "ELYSIAN 167", "Address": "3032 ELYSIAN FIELDS AVE", "Suite": null, "City": "NEW ORLEANS", "State": "LA", "Zip": "70112", "PhoneNumber": null, "BusinessType": "1131 - GASOLINE STATIONS W/CONVENIENCE STORES", "OwnerName": "ELYSIAN FIELDS OPERATIONS NO. 2, LLC", "LocationX": "3684214.01589", "LocationY": "543927.469326" }, "geometry": { "type": "Point", "coordinates": [ -90.059070365526154, 29.989534644460708 ] } },
{ "type": "Feature", "properties": { "OBJECTID": 119778, "BusinessName": "ELYSIAN FIELDS SHELL", "Address": "6300 ELYSIAN FIELDS AVE", "Suite": null, "City": "NEW ORLEANS", "State": "LA", "Zip": "70122", "PhoneNumber": "504-884-8766", "BusinessType": "1101 - CONVENIENCE STORES", "OwnerName": "M & S  OIL SERVICES, L.L.C.", "LocationX": "3683202.15394", "LocationY": "556241.64425" }, "geometry": { "type": "Point", "coordinates": [ -90.061834922164834, 30.023425087105942 ] } },
{ "type": "Feature", "properties": { "OBJECTID": 119779, "BusinessName": "EMPIRE EXPRESS", "Address": "4301 LOUISA DRIVE", "Suite": "A", "City": "NEW ORLEANS", "State": "LA", "Zip": "70126", "PhoneNumber": null, "BusinessType": "1131 - GASOLINE STATIONS W/CONVENIENCE STORES", "OwnerName": "EMPIRE EXPRESS, LLC", "LocationX": "3678691.8167", "LocationY": "530187.70942" }, "geometry": { "type": "Point", "coordinates": [ -90.076989294556824, 29.951922709288411 ] } },
{ "type": "Feature", "properties": { "OBJECTID": 119780, "BusinessName": "FLEUR DE LIS CAR CARE CENTER", "Address": "247 W HARRISON AVE", "Suite": null, "City": "NEW ORLEANS", "State": "LA", "Zip": "70124", "PhoneNumber": null, "BusinessType": "1142 - GASOLINE STATIONS, OTHER", "OwnerName": "BERGERON, C RAY         BERGERON, C RAY", "LocationX": "3665409.63412", "LocationY": "549711.161108" }, "geometry": { "type": "Point", "coordinates": [ -90.118274623596932, 30.005999420975453 ] } },
{ "type": "Feature", "properties": { "OBJECTID": 119781, "BusinessName": "FOOD N FUN #24", "Address": "447 N RAMPART ST", "Suite": null, "City": "NEW ORLEANS", "State": "LA", "Zip": "70112", "PhoneNumber": null, "BusinessType": "1131 - GASOLINE STATIONS W/CONVENIENCE STORES", "OwnerName": "SPOONBILL VENTURES,LLC", "LocationX": "3680828.77077", "LocationY": "532745.325636" }, "geometry": { "type": "Point", "coordinates": [ -90.070152779132698, 29.958890691091501 ] } },
{ "type": "Feature", "properties": { "OBJECTID": 119782, "BusinessName": "FRANKLIN AVE SHELL", "Address": "1100 FRANKLIN AVE", "Suite": null, "City": "NEW ORLEANS", "State": "LA", "Zip": "70117", "PhoneNumber": null, "BusinessType": "1131 - GASOLINE STATIONS W/CONVENIENCE STORES", "OwnerName": "FRANKLIN AVE SHELL, INC", "LocationX": "3686968.27132", "LocationY": "536608.788167" }, "geometry": { "type": "Point", "coordinates": [ -90.050629259309332, 29.969326343130312 ] } },
{ "type": "Feature", "properties": { "OBJECTID": 119783, "BusinessName": "FUEL EXPRESS MART", "Address": "6500 I 10 E SERVICE RD", "Suite": null, "City": "NEW ORLEANS", "State": "LA", "Zip": "70126", "PhoneNumber": "504-376-7699", "BusinessType": "1131 - GASOLINE STATIONS W/CONVENIENCE STORES", "OwnerName": "M G EXPRESS, LLC", "LocationX": "3697682.0097", "LocationY": "557614.914971" }, "geometry": { "type": "Point", "coordinates": [ -90.016031973153019, 30.026751304640268 ] } },
{ "type": "Feature", "properties": { "OBJECTID": 119784, "BusinessName": "FUEL N MART", "Address": "4140 S CLAIBORNE AVE", "Suite": null, "City": "NEW ORLEANS", "State": "LA", "Zip": "70125", "PhoneNumber": "504-891-1852", "BusinessType": "1131 - GASOLINE STATIONS W/CONVENIENCE STORES", "OwnerName": "TWO GUYS WITH GAS, INC", "LocationX": "3671199.02747", "LocationY": "525814.783357" }, "geometry": { "type": "Point", "coordinates": [ -90.100796563594074, 29.940122359249184 ] } },
{ "type": "Feature", "properties": { "OBJECTID": 119785, "BusinessName": "FUEL N MART", "Address": "7220 HAYNE BLVD", "Suite": null, "City": "NEW ORLEANS", "State": "LA", "Zip": "70126", "PhoneNumber": null, "BusinessType": "1101 - CONVENIENCE STORES", "OwnerName": "ANZ LLC", "LocationX": "3699081.53405", "LocationY": "561544.937055" }, "geometry": { "type": "Point", "coordinates": [ -90.011466385707337, 30.037513036258357 ] } },
{ "type": "Feature", "properties": { "OBJECTID": 119786, "BusinessName": "FUEL ZONE", "Address": "4500 CHEF MENTEUR HWY", "Suite": null, "City": "NEW ORLEANS", "State": "LA", "Zip": "70126", "PhoneNumber": null, "BusinessType": "1101 - CONVENIENCE STORES", "OwnerName": "FUEL ZONE LLC", "LocationX": "3691466.2294", "LocationY": "549683.876884" }, "geometry": { "type": "Point", "coordinates": [ -90.035956879636004, 30.005138918370324 ] } },
{ "type": "Feature", "properties": { "OBJECTID": 119787, "BusinessName": "GAUCHETS ROCKERY SERVICE", "Address": "722 ROBERT E LEE BLVD", "Suite": null, "City": "NEW ORLEANS", "State": "LA", "Zip": "70124", "PhoneNumber": null, "BusinessType": "1131 - GASOLINE STATIONS W/CONVENIENCE STORES", "OwnerName": "GAUCHET DANNY L JR/STANL", "LocationX": "3669386.1819", "LocationY": "554558.352216" }, "geometry": { "type": "Point", "coordinates": [ -90.105547634134965, 30.019210945964947 ] } },
{ "type": "Feature", "properties": { "OBJECTID": 119788, "BusinessName": "GENTILLY CHEVRON", "Address": "4046 CHEF MENTEUR HWY", "Suite": null, "City": "NEW ORLEANS", "State": "LA", "Zip": "70126", "PhoneNumber": "504-279-6013", "BusinessType": "1142 - GASOLINE STATIONS, OTHER", "OwnerName": "GENTILLY CHEVRON, INC.", "LocationX": "3689563.47318", "LocationY": "548862.437843" }, "geometry": { "type": "Point", "coordinates": [ -90.041997317750912, 30.00293936184076 ] } },
{ "type": "Feature", "properties": { "OBJECTID": 119789, "BusinessName": "GENTILLY SHELL", "Address": "2035 GENTILLY BLVD", "Suite": null, "City": "NEW ORLEANS", "State": "LA", "Zip": "70119", "PhoneNumber": null, "BusinessType": "1131 - GASOLINE STATIONS W/CONVENIENCE STORES", "OwnerName": "OTTALLAH, INC", "LocationX": "3679940.00904", "LocationY": "544054.443406" }, "geometry": { "type": "Point", "coordinates": [ -90.072566331904284, 29.990013778180487 ] } },
{ "type": "Feature", "properties": { "OBJECTID": 119790, "BusinessName": "IDEAL DISCOUNT MARKET", "Address": "3340 ORLEANS AVE", "Suite": null, "City": "NEW ORLEANS", "State": "LA", "Zip": "70119", "PhoneNumber": null, "BusinessType": "1131 - GASOLINE STATIONS W/CONVENIENCE STORES", "OwnerName": "ORLEANS AVENUE MARKET,LLC", "LocationX": "3674457.15336", "LocationY": "538627.199113" }, "geometry": { "type": "Point", "coordinates": [ -90.090071243520839, 29.975255460942588 ] } },
{ "type": "Feature", "properties": { "OBJECTID": 119791, "BusinessName": "JETGO", "Address": "3720 MAGAZINE ST", "Suite": null, "City": "NEW ORLEANS", "State": "LA", "Zip": "70115", "PhoneNumber": "504-269-0246", "BusinessType": "1131 - GASOLINE STATIONS W/CONVENIENCE STORES", "OwnerName": "AL-MALIK, INC", "LocationX": "3673465.84385", "LocationY": "519001.366455" }, "geometry": { "type": "Point", "coordinates": [ -90.093872548236945, 29.921320420229932 ] } },
{ "type": "Feature", "properties": { "OBJECTID": 119792, "BusinessName": "KENILWORTH SPUR", "Address": "6501 I 10 E SERVICE RD", "Suite": null, "City": "NEW ORLEANS", "State": "LA", "Zip": "70126", "PhoneNumber": "504-782-3530", "BusinessType": "1131 - GASOLINE STATIONS W/CONVENIENCE STORES", "OwnerName": "HINGEL PETROLEUM,LLC", "LocationX": "3678691.8167", "LocationY": "530187.70942" }, "geometry": { "type": "Point", "coordinates": [ -90.076989294556824, 29.951922709288411 ] } },
{ "type": "Feature", "properties": { "OBJECTID": 119793, "BusinessName": "KEY'S FUEL MART 3", "Address": "4401 N ROBERTSON ST", "Suite": null, "City": "NEW ORLEANS", "State": "LA", "Zip": "70117", "PhoneNumber": null, "BusinessType": "1131 - GASOLINE STATIONS W/CONVENIENCE STORES", "OwnerName": "4401 FUEL MART,INC", "LocationX": "3693548.93232", "LocationY": "536536.338375" }, "geometry": { "type": "Point", "coordinates": [ -90.029849711173725, 29.968922932795092 ] } },
{ "type": "Feature", "properties": { "OBJECTID": 119794, "BusinessName": "LAKE FOREST SPUR", "Address": "5901 READ BLVD", "Suite": null, "City": "NEW ORLEANS", "State": "LA", "Zip": "70127", "PhoneNumber": "504-248-8885", "BusinessType": "1131 - GASOLINE STATIONS W/CONVENIENCE STORES", "OwnerName": "HINGEL PETROLEUM,LLC", "LocationX": "3710769.39621", "LocationY": "561036.189342" }, "geometry": { "type": "Point", "coordinates": [ -89.974549393400153, 30.035738260519604 ] } },
{ "type": "Feature", "properties": { "OBJECTID": 119795, "BusinessName": "LAKE TERRACE CROSSING", "Address": "1600 ROBERT E LEE BLVD", "Suite": null, "City": "NEW ORLEANS", "State": "LA", "Zip": "70122", "PhoneNumber": "504-565-3722", "BusinessType": "1131 - GASOLINE STATIONS W/CONVENIENCE STORES", "OwnerName": "SALJER,LLC", "LocationX": "3679027.57403", "LocationY": "555251.686873" }, "geometry": { "type": "Point", "coordinates": [ -90.075060074693681, 30.020829777674109 ] } },
{ "type": "Feature", "properties": { "OBJECTID": 119796, "BusinessName": "LAKEVIEW DISCOUNT", "Address": "932 HARRISON AVE", "Suite": null, "City": "NEW ORLEANS", "State": "LA", "Zip": "70124", "PhoneNumber": "504-895-2001", "BusinessType": "1131 - GASOLINE STATIONS W/CONVENIENCE STORES", "OwnerName": "LAKEVIEW DISCOUNT INC", "LocationX": "3670225.90574", "LocationY": "549040.399251" }, "geometry": { "type": "Point", "coordinates": [ -90.103081578881813, 30.004013750499197 ] } },
{ "type": "Feature", "properties": { "OBJECTID": 119797, "BusinessName": "LT INVESTMENTS LLC", "Address": "3400 FRANKLIN AVE", "Suite": null, "City": "NEW ORLEANS", "State": "LA", "Zip": "70122", "PhoneNumber": null, "BusinessType": "1131 - GASOLINE STATIONS W/CONVENIENCE STORES", "OwnerName": "LT INVESTMENTS LLC", "LocationX": "3687146.58089", "LocationY": "545512.110672" }, "geometry": { "type": "Point", "coordinates": [ -90.049751171857778, 29.993801843303512 ] } },
{ "type": "Feature", "properties": { "OBJECTID": 119798, "BusinessName": "MAGAZINE FUEL LLC", "Address": "2135 MAGAZINE ST", "Suite": null, "City": "NEW ORLEANS", "State": "LA", "Zip": "70130", "PhoneNumber": null, "BusinessType": "1131 - GASOLINE STATIONS W/CONVENIENCE STORES", "OwnerName": "MAGAZINE FUEL LLC", "LocationX": "3678893.21858", "LocationY": "522160.51865" }, "geometry": { "type": "Point", "coordinates": [ -90.076631346373432, 29.929844517035786 ] } },
{ "type": "Feature", "properties": { "OBJECTID": 119799, "BusinessName": "MAGAZINE SPUR", "Address": "2727 MAGAZINE ST", "Suite": null, "City": "NEW ORLEANS", "State": "LA", "Zip": "70130", "PhoneNumber": "504-895-2001", "BusinessType": "1131 - GASOLINE STATIONS W/CONVENIENCE STORES", "OwnerName": "AL-MONA, INC", "LocationX": "3677114.0669", "LocationY": "520909.258425" }, "geometry": { "type": "Point", "coordinates": [ -90.082290954478069, 29.926457491658489 ] } },
{ "type": "Feature", "properties": { "OBJECTID": 119800, "BusinessName": "MAGNOLIA DISCOUNT", "Address": "1601 ELYSIAN FIELDS AVE", "Suite": null, "City": "NEW ORLEANS", "State": "LA", "Zip": "70117", "PhoneNumber": "504-250-3914", "BusinessType": "1131 - GASOLINE STATIONS W/CONVENIENCE STORES", "OwnerName": "FOUAD JR. VENTURES, LLC", "LocationX": "3684998.50652", "LocationY": "538213.613129" }, "geometry": { "type": "Point", "coordinates": [ -90.056793456952505, 29.9737995385311 ] } },
{ "type": "Feature", "properties": { "OBJECTID": 119801, "BusinessName": "MAGNOLIA DISCOUNT", "Address": "3054 GENERAL DE GAULLE DR", "Suite": null, "City": "NEW ORLEANS", "State": "LA", "Zip": "70114", "PhoneNumber": "504-453-0466", "BusinessType": "1131 - GASOLINE STATIONS W/CONVENIENCE STORES", "OwnerName": "RICKS GENERAL DEGAULLE LLC", "LocationX": "3695409.81814", "LocationY": "521271.256953" }, "geometry": { "type": "Point", "coordinates": [ -90.024523587108987, 29.926890924682976 ] } },
{ "type": "Feature", "properties": { "OBJECTID": 119802, "BusinessName": "MAGNOLIA DISCOUNT", "Address": "3415 S CARROLLTON AVE", "Suite": null, "City": "NEW ORLEANS", "State": "LA", "Zip": "70118", "PhoneNumber": null, "BusinessType": "1131 - GASOLINE STATIONS W/CONVENIENCE STORES", "OwnerName": "THUMBS UP RACE TWO LLC", "LocationX": "3667497.20007", "LocationY": "534133.842373" }, "geometry": { "type": "Point", "coordinates": [ -90.11220394107049, 29.963106033529925 ] } },
{ "type": "Feature", "properties": { "OBJECTID": 119803, "BusinessName": "MANNINO'S P & M TEXACO SERVICE", "Address": "1139 N RAMPART ST", "Suite": null, "City": "NEW ORLEANS", "State": "LA", "Zip": "70116", "PhoneNumber": "504-522-5255", "BusinessType": "1131 - GASOLINE STATIONS W/CONVENIENCE STORES", "OwnerName": "MANNINO'S P & M TEXACO  SER INC", "LocationX": "3682394.57314", "LocationY": "534792.003718" }, "geometry": { "type": "Point", "coordinates": [ -90.065136844563071, 29.964470800225289 ] } },
{ "type": "Feature", "properties": { "OBJECTID": 119804, "BusinessName": "MARDI GRAS TRUCK STOP", "Address": "2411 ELYSIAN FIELDS AVE", "Suite": null, "City": "NEW ORLEANS", "State": "LA", "Zip": "70117", "PhoneNumber": "504-945-1000", "BusinessType": "1131 - GASOLINE STATIONS W/CONVENIENCE STORES", "OwnerName": "MALONEY CINQUE LTD", "LocationX": "3684742.60073", "LocationY": "541439.410892" }, "geometry": { "type": "Point", "coordinates": [ -90.057488226262535, 29.982677189341089 ] } },
{ "type": "Feature", "properties": { "OBJECTID": 119805, "BusinessName": "MARK'S MID-CITY SERVICE STATION, INC.", "Address": "4440 S CARROLLTON AVE", "Suite": null, "City": "NEW ORLEANS", "State": "LA", "Zip": "70119", "PhoneNumber": "504-488-0618", "BusinessType": "1142 - GASOLINE STATIONS, OTHER", "OwnerName": "MARK'S MID-CITY SERVICE STATION, INC.", "LocationX": "3678691.8167", "LocationY": "530187.70942" }, "geometry": { "type": "Point", "coordinates": [ -90.076989294556824, 29.951922709288411 ] } },
{ "type": "Feature", "properties": { "OBJECTID": 119806, "BusinessName": "MURPHY USA #7138", "Address": "3921 BEHRMAN HWY", "Suite": null, "City": "NEW ORLEANS", "State": "LA", "Zip": "70131", "PhoneNumber": "504-368-8385", "BusinessType": "1131 - GASOLINE STATIONS W/CONVENIENCE STORES", "OwnerName": "MURPHY OIL USA,INC", "LocationX": "3697411.75063", "LocationY": "516123.84722" }, "geometry": { "type": "Point", "coordinates": [ -90.018390520250989, 29.912674264182964 ] } },
{ "type": "Feature", "properties": { "OBJECTID": 119807, "BusinessName": "ORLEANS CENTER MARKET", "Address": "2707 ORLEANS AVE", "Suite": null, "City": "NEW ORLEANS", "State": "LA", "Zip": "70119", "PhoneNumber": null, "BusinessType": "1101 - CONVENIENCE STORES", "OwnerName": "ORLEANS CENTER MARKET LLC", "LocationX": "3676747.53512", "LocationY": "537213.051272" }, "geometry": { "type": "Point", "coordinates": [ -90.082886342940355, 29.971298506485521 ] } },
{ "type": "Feature", "properties": { "OBJECTID": 119808, "BusinessName": "PARIS AVENUE SUPERETTE", "Address": "2025 GENTILLY BLVD", "Suite": null, "City": "NEW ORLEANS", "State": "LA", "Zip": "70119", "PhoneNumber": null, "BusinessType": "1131 - GASOLINE STATIONS W/CONVENIENCE STORES", "OwnerName": "PARIS AVENUE SUPERETTE, INC.", "LocationX": "3679730.33141", "LocationY": "543844.936142" }, "geometry": { "type": "Point", "coordinates": [ -90.073235925465454, 29.989444049044724 ] } },
{ "type": "Feature", "properties": { "OBJECTID": 119809, "BusinessName": "PETRO SAVE", "Address": "3201 GENTILLY BLVD", "Suite": null, "City": "NEW ORLEANS", "State": "LA", "Zip": "70127", "PhoneNumber": null, "BusinessType": "1131 - GASOLINE STATIONS W/CONVENIENCE STORES", "OwnerName": "PETRO SAVE, LLC", "LocationX": "3684247.07145", "LocationY": "547837.04661" }, "geometry": { "type": "Point", "coordinates": [ -90.058828593717763, 30.000283577759866 ] } },
{ "type": "Feature", "properties": { "OBJECTID": 119810, "BusinessName": "QUICK TRIP DISCOUNT", "Address": "1635 TULANE AVE", "Suite": null, "City": "NEW ORLEANS", "State": "LA", "Zip": "70112", "PhoneNumber": "504-382-5335", "BusinessType": "1131 - GASOLINE STATIONS W/CONVENIENCE STORES", "OwnerName": "QUICK TRIP DISCOUNT LLC", "LocationX": "3677942.03771", "LocationY": "531999.361283" }, "geometry": { "type": "Point", "coordinates": [ -90.07929413827587, 29.956926728238756 ] } },
{ "type": "Feature", "properties": { "OBJECTID": 119811, "BusinessName": "RACETRAC #2383", "Address": "3500 GENERAL DE GAULLE DR", "Suite": null, "City": "NEW ORLEANS", "State": "LA", "Zip": "70114", "PhoneNumber": null, "BusinessType": "1131 - GASOLINE STATIONS W/CONVENIENCE STORES", "OwnerName": "RACETRAC PETROLEUM INC.", "LocationX": "3696226.37693", "LocationY": "520903.798713" }, "geometry": { "type": "Point", "coordinates": [ -90.021959214883665, 29.925854868169072 ] } },
{ "type": "Feature", "properties": { "OBJECTID": 119812, "BusinessName": "RAGIN CAJUN DELI", "Address": "5151 CANAL BLVD", "Suite": "A", "City": "NEW ORLEANS", "State": "LA", "Zip": "70124", "PhoneNumber": null, "BusinessType": "1131 - GASOLINE STATIONS W/CONVENIENCE STORES", "OwnerName": "RAGIN CAJUN FUEL", "LocationX": "3668073.01997", "LocationY": "541903.128012" }, "geometry": { "type": "Point", "coordinates": [ -90.110123652128607, 29.984452084400566 ] } },
{ "type": "Feature", "properties": { "OBJECTID": 119813, "BusinessName": "READ SHELL", "Address": "7358 READ BLVD", "Suite": null, "City": "NEW ORLEANS", "State": "LA", "Zip": "70128", "PhoneNumber": "504-908-5876", "BusinessType": "1131 - GASOLINE STATIONS W/CONVENIENCE STORES", "OwnerName": "NKHAN, INC.", "LocationX": "3708926.28388", "LocationY": "563458.43184" }, "geometry": { "type": "Point", "coordinates": [ -89.980283519434494, 30.042458433241642 ] } },
{ "type": "Feature", "properties": { "OBJECTID": 119814, "BusinessName": "ROGERS CHEVRON SERVICE", "Address": "6132 FRANKLIN AVE", "Suite": null, "City": "NEW ORLEANS", "State": "LA", "Zip": "70122", "PhoneNumber": null, "BusinessType": "1142 - GASOLINE STATIONS, OTHER", "OwnerName": "SIGSWORTH, ROGER", "LocationX": "3686296.35254", "LocationY": "555832.849113" }, "geometry": { "type": "Point", "coordinates": [ -90.05207236500209, 30.02220627951786 ] } },
{ "type": "Feature", "properties": { "OBJECTID": 119815, "BusinessName": "SPEED RACER", "Address": "8020 DOWNMAN RD", "Suite": "104", "City": "NEW ORLEANS", "State": "LA", "Zip": "70126", "PhoneNumber": "504-248-2005", "BusinessType": "1101 - CONVENIENCE STORES", "OwnerName": "COMPAK DELI INC", "LocationX": "3694159.19933", "LocationY": "559583.275165" }, "geometry": { "type": "Point", "coordinates": [ -90.02709273462736, 30.032274434874505 ] } },
{ "type": "Feature", "properties": { "OBJECTID": 119816, "BusinessName": "SPUR GENERAL MEYER", "Address": "4901 GENERAL MEYER AVE", "Suite": null, "City": "NEW ORLEANS", "State": "LA", "Zip": "70131", "PhoneNumber": "504-393-9939", "BusinessType": "1131 - GASOLINE STATIONS W/CONVENIENCE STORES", "OwnerName": "SPUR GENERAL MEYER LLC", "LocationX": "3702286.40177", "LocationY": "523030.039547" }, "geometry": { "type": "Point", "coordinates": [ -90.002751713951213, 29.931509200121603 ] } },
{ "type": "Feature", "properties": { "OBJECTID": 119817, "BusinessName": "STORE #140", "Address": "4662 GENERAL DE GAULLE DR", "Suite": null, "City": "NEW ORLEANS", "State": "LA", "Zip": "70131", "PhoneNumber": "504-366-2413", "BusinessType": "1131 - GASOLINE STATIONS W/CONVENIENCE STORES", "OwnerName": "4662 GDD LLC", "LocationX": "3700989.42602", "LocationY": "517641.475382" }, "geometry": { "type": "Point", "coordinates": [ -90.007042985287555, 29.916733849052878 ] } },
{ "type": "Feature", "properties": { "OBJECTID": 119818, "BusinessName": "STORE #142", "Address": "2601 GENERAL DE GAULLE DR", "Suite": null, "City": "NEW ORLEANS", "State": "LA", "Zip": "70114", "PhoneNumber": "504-366-5639", "BusinessType": "1131 - GASOLINE STATIONS W/CONVENIENCE STORES", "OwnerName": "2601 GEN DEGAULLE LLC", "LocationX": "3693043.13405", "LocationY": "521933.018682" }, "geometry": { "type": "Point", "coordinates": [ -90.031970825639306, 29.928784664520371 ] } },
{ "type": "Feature", "properties": { "OBJECTID": 119819, "BusinessName": "SUPER DISCOUNT GAS", "Address": "2727 S CLAIBORNE AVE", "Suite": "UNIT C", "City": "NEW ORLEANS", "State": "LA", "Zip": "70125", "PhoneNumber": "504-363-0054", "BusinessType": "1131 - GASOLINE STATIONS W/CONVENIENCE STORES", "OwnerName": "SUPER DISCOUNT GAS, INC", "LocationX": "3673164.73307", "LocationY": "526887.061438" }, "geometry": { "type": "Point", "coordinates": [ -90.09455391789065, 29.94301248753856 ] } },
{ "type": "Feature", "properties": { "OBJECTID": 119820, "BusinessName": "TEX MART", "Address": "6733 CHEF MENTEUR HWY", "Suite": null, "City": "NEW ORLEANS", "State": "LA", "Zip": "70126", "PhoneNumber": "504-333-6282", "BusinessType": "1101 - CONVENIENCE STORES", "OwnerName": "TEX MART INC", "LocationX": "3699796.45104", "LocationY": "552111.595542" }, "geometry": { "type": "Point", "coordinates": [ -90.009551503803877, 30.011552259434392 ] } },
{ "type": "Feature", "properties": { "OBJECTID": 119821, "BusinessName": "THE WARE HOUSE GAS COMPANY", "Address": "1011 TCHOUPITOULAS ST", "Suite": null, "City": "NEW ORLEANS", "State": "LA", "Zip": "70130", "PhoneNumber": "504-565-5462", "BusinessType": "1131 - GASOLINE STATIONS W/CONVENIENCE STORES", "OwnerName": "THE WARE HOUSE GAS COMPANY, LLC", "LocationX": "3681748.65084", "LocationY": "526511.28915" }, "geometry": { "type": "Point", "coordinates": [ -90.067465507925945, 29.941721274165346 ] } },
{ "type": "Feature", "properties": { "OBJECTID": 119822, "BusinessName": "TRIANGLE DELI", "Address": "1904 N BROAD ST", "Suite": null, "City": "NEW ORLEANS", "State": "LA", "Zip": "70119", "PhoneNumber": null, "BusinessType": "1131 - GASOLINE STATIONS W/CONVENIENCE STORES", "OwnerName": "HALO III, LLC", "LocationX": "3680346.03035", "LocationY": "541674.479756" }, "geometry": { "type": "Point", "coordinates": [ -90.071366615441335, 29.983457420453558 ] } },
{ "type": "Feature", "properties": { "OBJECTID": 119823, "BusinessName": "TULANE SHELL", "Address": "3321 TULANE AVE", "Suite": null, "City": "NEW ORLEANS", "State": "LA", "Zip": "70119", "PhoneNumber": null, "BusinessType": "1131 - GASOLINE STATIONS W/CONVENIENCE STORES", "OwnerName": "OTTALLAH 2 INC", "LocationX": "3672178.50267", "LocationY": "534900.137158" }, "geometry": { "type": "Point", "coordinates": [ -90.097394809839244, 29.965075079776902 ] } },
{ "type": "Feature", "properties": { "OBJECTID": 119824, "BusinessName": "UNIVERSITY SHELL", "Address": "6201 S CLAIBORNE AVE", "Suite": null, "City": "NEW ORLEANS", "State": "LA", "Zip": "70125", "PhoneNumber": null, "BusinessType": "1131 - GASOLINE STATIONS W/CONVENIENCE STORES", "OwnerName": "LA GUARDIA AND MCADAMS ENTERPRISES INC", "LocationX": "3667260.57735", "LocationY": "527794.413183" }, "geometry": { "type": "Point", "coordinates": [ -90.113164348953376, 29.945681604699665 ] } },
{ "type": "Feature", "properties": { "OBJECTID": 119825, "BusinessName": "YOUSUF SHELL SELF SERVE", "Address": "2135 MAGAZINE ST", "Suite": null, "City": "NEW ORLEANS", "State": "LA", "Zip": "70130", "PhoneNumber": "504-669-7866", "BusinessType": "1131 - GASOLINE STATIONS W/CONVENIENCE STORES", "OwnerName": "YOUSUF, MUNIBUDDIN", "LocationX": "3678893.21858", "LocationY": "522160.51865" }, "geometry": { "type": "Point", "coordinates": [ -90.076631346373432, 29.929844517035786 ] } }
]
}
