{
"type": "FeatureCollection",
"name": "Grocery_Stores",
"crs": { "type": "name", "properties": { "name": "urn:ogc:def:crs:OGC:1.3:CRS84" } },
"features": [
{ "type": "Feature", "properties": { "OBJECTID": 467204, "OwnerName": "ARAMIX INC.", "BusinessName": "A & J'S MART", "Address": "5163 GENERAL DE GAULLE DR", "Suite": null, "City": "NEW ORLEANS", "State": "LA", "Zip": "70131", "PhoneNumber": "504-394-4410", "BusinessType": "1101 - CONVENIENCE STORES" }, "geometry": { "type": "Point", "coordinates": [ -89.999912773961029, 29.911395962498684 ] } },
{ "type": "Feature", "properties": { "OBJECTID": 467205, "OwnerName": "A & M FOOD STORE LLC", "BusinessName": "A & M FOOD STORE", "Address": "1741 MCSHANE PL", "Suite": null, "City": "NEW ORLEANS", "State": "LA", "Zip": "70116", "PhoneNumber": null, "BusinessType": "1106 - GROCERY (EXC CONVENIENCE) STORES" }, "geometry": { "type": "Point", "coordinates": [ -90.061956772381436, 29.967917482703371 ] } },
{ "type": "Feature", "properties": { "OBJECTID": 467206, "OwnerName": "LISA & LIZ, CORP        NGUYEN, BA V", "BusinessName": "ADAMS FOOD STORE #3", "Address": "3001 BIENVILLE ST", "Suite": null, "City": "NEW ORLEANS", "State": "LA", "Zip": "70119-5401", "PhoneNumber": "504-861-1120", "BusinessType": "1101 - CONVENIENCE STORES" }, "geometry": { "type": "Point", "coordinates": [ -90.076989294556824, 29.951922709288411 ] } },
{ "type": "Feature", "properties": { "OBJECTID": 467207, "OwnerName": "B & N FOOD STORE INC", "BusinessName": "ADAMS STREET GROCERY", "Address": "1309 ADAMS ST", "Suite": null, "City": "NEW ORLEANS", "State": "LA", "Zip": "70118", "PhoneNumber": null, "BusinessType": "1101 - CONVENIENCE STORES" }, "geometry": { "type": "Point", "coordinates": [ -90.125334422118684, 29.945537782293108 ] } },
{ "type": "Feature", "properties": { "OBJECTID": 467208, "OwnerName": "ZEYNA, LLC", "BusinessName": "AEREN'S SUPERMARKET", "Address": "3911 WASHINGTON AVE", "Suite": null, "City": "NEW ORLEANS", "State": "LA", "Zip": "70125", "PhoneNumber": "504-302-9875", "BusinessType": "1106 - GROCERY (EXC CONVENIENCE) STORES" }, "geometry": { "type": "Point", "coordinates": [ -90.099431779619664, 29.950080588920073 ] } },
{ "type": "Feature", "properties": { "OBJECTID": 467209, "OwnerName": "ALG DISCOUNT, LLC", "BusinessName": "ALG DISCOUNT", "Address": "5101 GENERAL DE GAULLE DR", "Suite": null, "City": "NEW ORLEANS", "State": "LA", "Zip": "70131", "PhoneNumber": "504-253-1254", "BusinessType": "1101 - CONVENIENCE STORES" }, "geometry": { "type": "Point", "coordinates": [ -90.000904322954867, 29.911994827895914 ] } },
{ "type": "Feature", "properties": { "OBJECTID": 467210, "OwnerName": "ALGIERS CENTRAL,INC", "BusinessName": "ALGIERS CENTRAL MARKET", "Address": "840 TECHE ST", "Suite": null, "City": "NEW ORLEANS", "State": "LA", "Zip": "70114", "PhoneNumber": "504-366-3221", "BusinessType": "1106 - GROCERY (EXC CONVENIENCE) STORES" }, "geometry": { "type": "Point", "coordinates": [ -90.052082721171715, 29.946698174991507 ] } },
{ "type": "Feature", "properties": { "OBJECTID": 467211, "OwnerName": "ALGIERS DISCOUNT FOOD STORE INC", "BusinessName": "ALGIERS DISCOUNT FOOD STORE", "Address": "3549 GENERAL MEYER AVE", "Suite": null, "City": "NEW ORLEANS", "State": "LA", "Zip": "70114", "PhoneNumber": null, "BusinessType": "1106 - GROCERY (EXC CONVENIENCE) STORES" }, "geometry": { "type": "Point", "coordinates": [ -90.019276118740407, 29.938688005791516 ] } },
{ "type": "Feature", "properties": { "OBJECTID": 467212, "OwnerName": "ALGIERS FUEL DISCOUNT LLC", "BusinessName": "ALGIERS FUEL DISCOUNT LLC", "Address": "5101 GENERAL DE GAULLE DR", "Suite": null, "City": "NEW ORLEANS", "State": "LA", "Zip": "70131", "PhoneNumber": null, "BusinessType": "1101 - CONVENIENCE STORES" }, "geometry": { "type": "Point", "coordinates": [ -90.000904322954867, 29.911994827895914 ] } },
{ "type": "Feature", "properties": { "OBJECTID": 467213, "OwnerName": "ALGIERS SUPERMARKET,LLC", "BusinessName": "ALGIERS SUPERMARKET", "Address": "3141 GENERAL MEYER AVE", "Suite": null, "City": "NEW ORLEANS", "State": "LA", "Zip": "70114", "PhoneNumber": null, "BusinessType": "1106 - GROCERY (EXC CONVENIENCE) STORES" }, "geometry": { "type": "Point", "coordinates": [ -90.022968620618641, 29.940426723667752 ] } },
{ "type": "Feature", "properties": { "OBJECTID": 467214, "OwnerName": "ALTALIEH CONVENIENCE LLC", "BusinessName": "ALTALIEH CONVENIENCE", "Address": "87 FRENCH MARKET PL", "Suite": null, "City": "NEW ORLEANS", "State": "LA", "Zip": "70116", "PhoneNumber": "504-339-8438", "BusinessType": "1101 - CONVENIENCE STORES" }, "geometry": { "type": "Point", "coordinates": [ -90.058418996106724, 29.961028678934539 ] } },
{ "type": "Feature", "properties": { "OBJECTID": 467215, "OwnerName": "HESS WAYNE B            ENGERON, DANIEL J", "BusinessName": "AMERICAN SEAFOOD INC", "Address": "3034 HAVANA ST", "Suite": null, "City": "NEW ORLEANS", "State": "LA", "Zip": "70122", "PhoneNumber": null, "BusinessType": "0135 - FISH & SEAFOOD WHLSRS" }, "geometry": { "type": "Point", "coordinates": [ -90.076989294556824, 29.951922709288411 ] } },
{ "type": "Feature", "properties": { "OBJECTID": 467216, "OwnerName": "ARNAUD'S FOOD COMPANY IN", "BusinessName": "ARNAUD'S FOOD COMPANY'S  INC", "Address": "813 BIENVILLE ST", "Suite": null, "City": "NEW ORLEANS", "State": "LA", "Zip": "70112", "PhoneNumber": "504-523-5433", "BusinessType": "0138 - GROCERY & RELATED PRDCTS WHLSRS, OTH" }, "geometry": { "type": "Point", "coordinates": [ -90.068797991638206, 29.955838482172968 ] } },
{ "type": "Feature", "properties": { "OBJECTID": 467217, "OwnerName": "REDZONE MAGAZINE", "BusinessName": "AVENUE MART LLC", "Address": "4237 MAGAZINE ST", "Suite": null, "City": "NEW ORLEANS", "State": "LA", "Zip": "70115", "PhoneNumber": "(504899-8579", "BusinessType": "1101 - CONVENIENCE STORES" }, "geometry": { "type": "Point", "coordinates": [ -90.100097872802337, 29.921048906741717 ] } },
{ "type": "Feature", "properties": { "OBJECTID": 467218, "OwnerName": "THE ORANGE STORE", "BusinessName": "AYYAD RAMPART", "Address": "1700 N RAMPART ST", "Suite": null, "City": "NEW ORLEANS", "State": "LA", "Zip": "70116", "PhoneNumber": null, "BusinessType": "1101 - CONVENIENCE STORES" }, "geometry": { "type": "Point", "coordinates": [ -90.062683322550768, 29.966698347872033 ] } },
{ "type": "Feature", "properties": { "OBJECTID": 467219, "OwnerName": "AZ EXPRESS,LLC", "BusinessName": "AZ EXPRESS", "Address": "1667 TCHOUPITOULAS ST", "Suite": null, "City": "NEW ORLEANS", "State": "LA", "Zip": "70130", "PhoneNumber": null, "BusinessType": "1101 - CONVENIENCE STORES" }, "geometry": { "type": "Point", "coordinates": [ -90.066808496322963, 29.929229796583222 ] } },
{ "type": "Feature", "properties": { "OBJECTID": 467220, "OwnerName": "JOSEPHINE FOOD STORE LLC", "BusinessName": "B & S FOOD STORE", "Address": "842 JOSEPHINE ST", "Suite": null, "City": "NEW ORLEANS", "State": "LA", "Zip": "70130", "PhoneNumber": null, "BusinessType": "1106 - GROCERY (EXC CONVENIENCE) STORES" }, "geometry": { "type": "Point", "coordinates": [ -90.074406818648242, 29.928523677808958 ] } },
{ "type": "Feature", "properties": { "OBJECTID": 467221, "OwnerName": "BACK ON THE AVENUE LLC", "BusinessName": "BACK ON THE AVENUE", "Address": "3401 BARONNE ST", "Suite": null, "City": "NEW ORLEANS", "State": "LA", "Zip": "70115", "PhoneNumber": null, "BusinessType": "1106 - GROCERY (EXC CONVENIENCE) STORES" }, "geometry": { "type": "Point", "coordinates": [ -90.092867040415953, 29.930129203632102 ] } },
{ "type": "Feature", "properties": { "OBJECTID": 467222, "OwnerName": "JADE, INC", "BusinessName": "BANKS MEAT MARKET", "Address": "325 S BROAD ST", "Suite": null, "City": "NEW ORLEANS", "State": "LA", "Zip": "70119", "PhoneNumber": "504-822-9004", "BusinessType": "1103 - MEAT MARKETS" }, "geometry": { "type": "Point", "coordinates": [ -90.089613892178718, 29.963380470941335 ] } },
{ "type": "Feature", "properties": { "OBJECTID": 467223, "OwnerName": "BARCIA'S GROCERY INC    ORGANO, ANN B", "BusinessName": "BARCIA'S GROCERY INC", "Address": "3633 ANNUNCIATION ST", "Suite": null, "City": "NEW ORLEANS", "State": "LA", "Zip": "70115", "PhoneNumber": "504-899-9111", "BusinessType": "1101 - CONVENIENCE STORES" }, "geometry": { "type": "Point", "coordinates": [ -90.091736680049706, 29.919281850903733 ] } },
{ "type": "Feature", "properties": { "OBJECTID": 467224, "OwnerName": "BASIN SUPERMARKET INC", "BusinessName": "BASIN SUPERMARKET", "Address": "237 BASIN ST", "Suite": null, "City": "NEW ORLEANS", "State": "LA", "Zip": "70112", "PhoneNumber": "504-522-7947", "BusinessType": "1101 - CONVENIENCE STORES" }, "geometry": { "type": "Point", "coordinates": [ -90.072237969407723, 29.957895506674369 ] } },
{ "type": "Feature", "properties": { "OBJECTID": 467225, "OwnerName": "NGA, INC", "BusinessName": "BAYOU FOOD STORE OF N. O", "Address": "2432 MARTIN LUTHER KING JR BLVD", "Suite": null, "City": "NEW ORLEANS", "State": "LA", "Zip": "70113", "PhoneNumber": "504-522-1004", "BusinessType": "1101 - CONVENIENCE STORES" }, "geometry": { "type": "Point", "coordinates": [ -90.084367260284168, 29.943846847442579 ] } },
{ "type": "Feature", "properties": { "OBJECTID": 467226, "OwnerName": "MAGNOLIA ENTERPRISES, INC.", "BusinessName": "BAYOU GIFTS", "Address": "1000 CANAL ST", "Suite": null, "City": "NEW ORLEANS", "State": "LA", "Zip": "70130", "PhoneNumber": null, "BusinessType": "1110 - BEER, WINE & LIQUOR STORES" }, "geometry": { "type": "Point", "coordinates": [ -90.07215398113334, 29.954910959124106 ] } },
{ "type": "Feature", "properties": { "OBJECTID": 467227, "OwnerName": "BEHRMAN CAJUN SEAFOOD   INC", "BusinessName": "BEHRMAN CAJUN SEAFOOD", "Address": "4021 BEHRMAN HWY", "Suite": "C", "City": "NEW ORLEANS", "State": "LA", "Zip": "70114", "PhoneNumber": "504-813-3986", "BusinessType": "1104 - FISH & SEAFOOD MARKETS" }, "geometry": { "type": "Point", "coordinates": [ -90.019984547374349, 29.909550717786956 ] } },
{ "type": "Feature", "properties": { "OBJECTID": 467228, "OwnerName": "BENN, KERMIT", "BusinessName": "BENNS GROCERY", "Address": "6445 ISADORE ST", "Suite": null, "City": "NEW ORLEANS", "State": "LA", "Zip": "70131", "PhoneNumber": "504-394-5800", "BusinessType": "1101 - CONVENIENCE STORES" }, "geometry": { "type": "Point", "coordinates": [ -89.984049667321074, 29.923220297257739 ] } },
{ "type": "Feature", "properties": { "OBJECTID": 467229, "OwnerName": "BIG BOY DISTRIBUTORS LLC", "BusinessName": "BIG BOY DISTRIBUTORS", "Address": "4441 SAN GIORGIO ST", "Suite": null, "City": "NEW ORLEANS", "State": "LA", "Zip": "70129", "PhoneNumber": "504-628-5689", "BusinessType": "0138 - GROCERY & RELATED PRDCTS WHLSRS, OTH" }, "geometry": { "type": "Point", "coordinates": [ -89.818452798836063, 30.070799135256877 ] } },
{ "type": "Feature", "properties": { "OBJECTID": 467230, "OwnerName": "BIG EASY MARDI GRAS CO LLC", "BusinessName": "BIG EASY MARDI GRAS CO", "Address": "600 DECATUR ST", "Suite": null, "City": "NEW ORLEANS", "State": "LA", "Zip": "70130", "PhoneNumber": "504-524-4729", "BusinessType": "1101 - CONVENIENCE STORES" }, "geometry": { "type": "Point", "coordinates": [ -90.063233957185176, 29.95600245217895 ] } },
{ "type": "Feature", "properties": { "OBJECTID": 467231, "OwnerName": "BIG EASY POBOY & SEAFOOD, LLC", "BusinessName": "BIG EASY POBOY & SEAFOOD", "Address": "3700 CLEMATIS ST", "Suite": null, "City": "NEW ORLEANS", "State": "LA", "Zip": "70122", "PhoneNumber": null, "BusinessType": "1106 - GROCERY (EXC CONVENIENCE) STORES" }, "geometry": { "type": "Point", "coordinates": [ -90.053270056191081, 29.99675665197039 ] } },
{ "type": "Feature", "properties": { "OBJECTID": 467232, "OwnerName": "BOILING POT AT GENTILLY,LLC", "BusinessName": "BOILING POT AT GENTILLY", "Address": "3868 GENTILLY BLVD", "Suite": null, "City": "NEW ORLEANS", "State": "LA", "Zip": "70122", "PhoneNumber": null, "BusinessType": "1101 - CONVENIENCE STORES" }, "geometry": { "type": "Point", "coordinates": [ -90.046035942575756, 30.002410598446023 ] } },
{ "type": "Feature", "properties": { "OBJECTID": 467233, "OwnerName": "BREAUX MART SUPERMARKETS INC", "BusinessName": "BREAUX MART SUPERMARKETS", "Address": "3233 MAGAZINE ST", "Suite": null, "City": "NEW ORLEANS", "State": "LA", "Zip": "70115", "PhoneNumber": null, "BusinessType": "1106 - GROCERY (EXC CONVENIENCE) STORES" }, "geometry": { "type": "Point", "coordinates": [ -90.087753150926886, 29.924002275098037 ] } },
{ "type": "Feature", "properties": { "OBJECTID": 467234, "OwnerName": "HOANG AN INC", "BusinessName": "BROAD & BANKS SEAFOOD", "Address": "342 S BROAD ST", "Suite": null, "City": "NEW ORLEANS", "State": "LA", "Zip": "70119", "PhoneNumber": null, "BusinessType": "1106 - GROCERY (EXC CONVENIENCE) STORES" }, "geometry": { "type": "Point", "coordinates": [ -90.089376595353272, 29.962930649381299 ] } },
{ "type": "Feature", "properties": { "OBJECTID": 467235, "OwnerName": "DON DO, INC", "BusinessName": "BROADVIEW SEAFOOD", "Address": "1468 N BROAD ST", "Suite": null, "City": "NEW ORLEANS", "State": "LA", "Zip": "70119", "PhoneNumber": "504-945-2118", "BusinessType": "1104 - FISH & SEAFOOD MARKETS" }, "geometry": { "type": "Point", "coordinates": [ -90.076793346064491, 29.977381186009687 ] } },
{ "type": "Feature", "properties": { "OBJECTID": 467236, "OwnerName": "BWC INC", "BusinessName": "BROADWAY FOOD STORE", "Address": "2223 BROADWAY ST", "Suite": null, "City": "NEW ORLEANS", "State": "LA", "Zip": "70118-5409", "PhoneNumber": "504-861-0505", "BusinessType": "1101 - CONVENIENCE STORES" }, "geometry": { "type": "Point", "coordinates": [ -90.116208668355128, 29.950540239961921 ] } },
{ "type": "Feature", "properties": { "OBJECTID": 467237, "OwnerName": "COUSIN'S FOODMART INC.", "BusinessName": "BROOKS GROCERY", "Address": "2434 ALLEN ST", "Suite": null, "City": "NEW ORLEANS", "State": "LA", "Zip": "70119", "PhoneNumber": null, "BusinessType": "1106 - GROCERY (EXC CONVENIENCE) STORES" }, "geometry": { "type": "Point", "coordinates": [ -90.065096769493877, 29.982223378927937 ] } },
{ "type": "Feature", "properties": { "OBJECTID": 467238, "OwnerName": "PARKS, EDWARD", "BusinessName": "BROTHER CORNER GROCERY", "Address": "3201 DRYADES ST", "Suite": null, "City": "NEW ORLEANS", "State": "LA", "Zip": "70115", "PhoneNumber": "504-891-0275", "BusinessType": "1101 - CONVENIENCE STORES" }, "geometry": { "type": "Point", "coordinates": [ -90.091054336351263, 29.93180589171493 ] } },
{ "type": "Feature", "properties": { "OBJECTID": 467239, "OwnerName": "EXXON GENERAL DEGAULLE, LLC", "BusinessName": "BROTHER FOOD MART NO. 136", "Address": "3622 GENERAL DE GAULLE DR", "Suite": null, "City": "NEW ORLEANS", "State": "LA", "Zip": "70114", "PhoneNumber": "504-366-2413", "BusinessType": "1101 - CONVENIENCE STORES" }, "geometry": { "type": "Point", "coordinates": [ -90.018529134677607, 29.924031311429832 ] } },
{ "type": "Feature", "properties": { "OBJECTID": 467240, "OwnerName": "ST. CLAUDE DISCOUNT LLC", "BusinessName": "BROTHER'S ST CLAUDE", "Address": "5104 ST CLAUDE AVE", "Suite": "A", "City": "NEW ORLEANS", "State": "LA", "Zip": "70117", "PhoneNumber": "504-220-3777", "BusinessType": "1101 - CONVENIENCE STORES" }, "geometry": { "type": "Point", "coordinates": [ -90.020827187446599, 29.962089767741208 ] } },
{ "type": "Feature", "properties": { "OBJECTID": 467241, "OwnerName": "AZZAM INC", "BusinessName": "BROTHERS DISCOUNT", "Address": "2701 MARTIN LUTHER KING JR BLVD", "Suite": null, "City": "NEW ORLEANS", "State": "LA", "Zip": "70113", "PhoneNumber": "504-525-5300", "BusinessType": "1101 - CONVENIENCE STORES" }, "geometry": { "type": "Point", "coordinates": [ -90.085893105982962, 29.945171053157015 ] } },
{ "type": "Feature", "properties": { "OBJECTID": 467242, "OwnerName": "CROWDER BROTHERS LLC", "BusinessName": "BROTHERS FOOD MART  NO 132", "Address": "5701 CROWDER BLVD", "Suite": null, "City": "NEW ORLEANS", "State": "LA", "Zip": "70127", "PhoneNumber": "504-366-2413", "BusinessType": "1101 - CONVENIENCE STORES" }, "geometry": { "type": "Point", "coordinates": [ -89.991699695334361, 30.02762875067998 ] } },
{ "type": "Feature", "properties": { "OBJECTID": 467243, "OwnerName": "148 CARONDELET STREET,LLC", "BusinessName": "BROTHERS FOOD MART 109", "Address": "148 CARONDELET ST", "Suite": null, "City": "NEW ORLEANS", "State": "LA", "Zip": "70130", "PhoneNumber": null, "BusinessType": "1106 - GROCERY (EXC CONVENIENCE) STORES" }, "geometry": { "type": "Point", "coordinates": [ -90.070761844303561, 29.952739693868587 ] } },
{ "type": "Feature", "properties": { "OBJECTID": 467244, "OwnerName": "NEWTON BROTHERS INC", "BusinessName": "BROTHERS FOOD MART NO 122", "Address": "1926 NEWTON ST", "Suite": null, "City": "NEW ORLEANS", "State": "LA", "Zip": "70114", "PhoneNumber": "504-366-2413", "BusinessType": "1101 - CONVENIENCE STORES" }, "geometry": { "type": "Point", "coordinates": [ -90.037161039213856, 29.945124003810186 ] } },
{ "type": "Feature", "properties": { "OBJECTID": 467245, "OwnerName": "BULLARD BROTHERS NO 127 LLC", "BusinessName": "BROTHERS FOOD MART NO 127", "Address": "7001 BULLARD AVE", "Suite": null, "City": "NEW ORLEANS", "State": "LA", "Zip": "70128", "PhoneNumber": null, "BusinessType": "1101 - CONVENIENCE STORES" }, "geometry": { "type": "Point", "coordinates": [ -89.961730828006466, 30.047884086460851 ] } },
{ "type": "Feature", "properties": { "OBJECTID": 467246, "OwnerName": "BROTHERS FRANKLIN INC", "BusinessName": "BROTHERS FRANKLIN", "Address": "2509 N VILLERE ST", "Suite": null, "City": "NEW ORLEANS", "State": "LA", "Zip": "70117", "PhoneNumber": "504-495-3342", "BusinessType": "1101 - CONVENIENCE STORES" }, "geometry": { "type": "Point", "coordinates": [ -90.049790320384005, 29.972151382526782 ] } },
{ "type": "Feature", "properties": { "OBJECTID": 467247, "OwnerName": "NEW CITY MART LLC", "BusinessName": "BROWN DERBY #3", "Address": "3326 TULANE AVE", "Suite": null, "City": "NEW ORLEANS", "State": "LA", "Zip": "70119", "PhoneNumber": "504-827-7899", "BusinessType": "1101 - CONVENIENCE STORES" }, "geometry": { "type": "Point", "coordinates": [ -90.097852856200149, 29.964860447981508 ] } },
{ "type": "Feature", "properties": { "OBJECTID": 467248, "OwnerName": "SANAD LLC", "BusinessName": "BROWN DERBY #4", "Address": "3737 CLEMATIS ST", "Suite": null, "City": "NEW ORLEANS", "State": "LA", "Zip": "70122", "PhoneNumber": null, "BusinessType": "1105 - FULL SVC RESTAURANTS (TABLE SERVICE)" }, "geometry": { "type": "Point", "coordinates": [ -90.053327759356492, 29.997409977523347 ] } },
{ "type": "Feature", "properties": { "OBJECTID": 467249, "OwnerName": "SODEXO MANAGEMENT INC", "BusinessName": "BRUFF STUFF", "Address": "31 MCALISTER DR", "Suite": null, "City": "NEW ORLEANS", "State": "LA", "Zip": "70118", "PhoneNumber": "504-865-5293", "BusinessType": "1101 - CONVENIENCE STORES" }, "geometry": { "type": "Point", "coordinates": [ -90.118667263272528, 29.94104755052329 ] } },
{ "type": "Feature", "properties": { "OBJECTID": 467250, "OwnerName": "KEITH BUNN", "BusinessName": "BUNN'S GROCERY", "Address": "2438 BIENVILLE ST", "Suite": null, "City": "NEW ORLEANS", "State": "LA", "Zip": "70119", "PhoneNumber": null, "BusinessType": "1101 - CONVENIENCE STORES" }, "geometry": { "type": "Point", "coordinates": [ -90.076989294556824, 29.951922709288411 ] } },
{ "type": "Feature", "properties": { "OBJECTID": 467251, "OwnerName": "ABUALI FADI A", "BusinessName": "BUSY BEE FOOD STORE", "Address": "2401 ORLEANS AVE", "Suite": "A", "City": "NEW ORLEANS", "State": "LA", "Zip": "70119-5027", "PhoneNumber": "504-821-5586", "BusinessType": "1101 - CONVENIENCE STORES" }, "geometry": { "type": "Point", "coordinates": [ -90.0793567993191, 29.968677610168427 ] } },
{ "type": "Feature", "properties": { "OBJECTID": 467252, "OwnerName": "DEEP SOUTH GROCERY CO IN", "BusinessName": "CAJUN COUNTRY STORE", "Address": "400 CANAL ST", "Suite": null, "City": "NEW ORLEANS", "State": "LA", "Zip": "70130", "PhoneNumber": "504-586-8753", "BusinessType": "1101 - CONVENIENCE STORES" }, "geometry": { "type": "Point", "coordinates": [ -90.066380753172197, 29.951021755180449 ] } },
{ "type": "Feature", "properties": { "OBJECTID": 467253, "OwnerName": "TIEN & TUYET, INC", "BusinessName": "CAJUN SEAFOOD", "Address": "2730 S BROAD ST", "Suite": null, "City": "NEW ORLEANS", "State": "LA", "Zip": "70125", "PhoneNumber": "504-822-6185", "BusinessType": "1104 - FISH & SEAFOOD MARKETS" }, "geometry": { "type": "Point", "coordinates": [ -90.100263764319052, 29.950856066317442 ] } },
{ "type": "Feature", "properties": { "OBJECTID": 467254, "OwnerName": "CAJUN SEAFOOD #4,LLC", "BusinessName": "CAJUN SEAFOOD #4", "Address": "7020 READ BLVD", "Suite": null, "City": "NEW ORLEANS", "State": "LA", "Zip": "70127", "PhoneNumber": "504-241-1396", "BusinessType": "1106 - GROCERY (EXC CONVENIENCE) STORES" }, "geometry": { "type": "Point", "coordinates": [ -89.977623506389918, 30.038508558210321 ] } },
{ "type": "Feature", "properties": { "OBJECTID": 467255, "OwnerName": "RACHEL SEAFOOD INC", "BusinessName": "CAJUN SEAFOOD 2", "Address": "1901 ALMONASTER AVE", "Suite": null, "City": "NEW ORLEANS", "State": "LA", "Zip": "70117", "PhoneNumber": "504-945-5447", "BusinessType": "1101 - CONVENIENCE STORES" }, "geometry": { "type": "Point", "coordinates": [ -90.047486051616318, 29.977224275709922 ] } },
{ "type": "Feature", "properties": { "OBJECTID": 467256, "OwnerName": "CAJUN ORLEANS LLC", "BusinessName": "CAJUN WILLS", "Address": "2127 ORLEANS AVE", "Suite": null, "City": "NEW ORLEANS", "State": "LA", "Zip": "70116", "PhoneNumber": "504-821-6386", "BusinessType": "1106 - GROCERY (EXC CONVENIENCE) STORES" }, "geometry": { "type": "Point", "coordinates": [ -90.077229862259912, 29.967255992150086 ] } },
{ "type": "Feature", "properties": { "OBJECTID": 467257, "OwnerName": "CANAL FUEL MART INC", "BusinessName": "CANAL FUEL MART", "Address": "4701 CANAL STREET", "Suite": null, "City": "NEW ORLEANS", "State": "LA", "Zip": "70119", "PhoneNumber": null, "BusinessType": "1106 - GROCERY (EXC CONVENIENCE) STORES" }, "geometry": { "type": "Point", "coordinates": [ -90.076989294556824, 29.951922709288411 ] } },
{ "type": "Feature", "properties": { "OBJECTID": 467258, "OwnerName": "VIENNE ENTERPRISE LLC", "BusinessName": "CANAL MART & EATERY", "Address": "2700 CANAL ST", "Suite": "A", "City": "NEW ORLEANS", "State": "LA", "Zip": "70119", "PhoneNumber": "504-821-7730", "BusinessType": "1101 - CONVENIENCE STORES" }, "geometry": { "type": "Point", "coordinates": [ -90.08774928796953, 29.965515303894353 ] } },
{ "type": "Feature", "properties": { "OBJECTID": 467259, "OwnerName": "CANSECO'S CARROLLTON MARKET LLC", "BusinessName": "CANSECO'S CARROLLTON MARKET", "Address": "1133 S CARROLLTON AVE AVE", "Suite": null, "City": "NEW ORLEANS", "State": "LA", "Zip": "70118", "PhoneNumber": null, "BusinessType": "1106 - GROCERY (EXC CONVENIENCE) STORES" }, "geometry": { "type": "Point", "coordinates": [ -90.076989294556824, 29.951922709288411 ] } },
{ "type": "Feature", "properties": { "OBJECTID": 467260, "OwnerName": "CANSECO'S ELYSIAN FIELDS, LLC", "BusinessName": "CANSECO'S ELYSIAN FIELDS", "Address": "5217 ELYSIAN FIELDS AVE", "Suite": null, "City": "NEW ORLEANS", "State": "LA", "Zip": "70122", "PhoneNumber": "504-304-9805", "BusinessType": "1106 - GROCERY (EXC CONVENIENCE) STORES" }, "geometry": { "type": "Point", "coordinates": [ -90.059885189399651, 30.01230780902668 ] } },
{ "type": "Feature", "properties": { "OBJECTID": 467261, "OwnerName": "CANSECO'S ESPLANADE LLC", "BusinessName": "CANSECO'S ESPLANADE MARKET", "Address": "3135 ESPLANADE AVE", "Suite": null, "City": "NEW ORLEANS", "State": "LA", "Zip": "70119", "PhoneNumber": "504-322-2594", "BusinessType": "1106 - GROCERY (EXC CONVENIENCE) STORES" }, "geometry": { "type": "Point", "coordinates": [ -90.084498011128048, 29.980560028655237 ] } },
{ "type": "Feature", "properties": { "OBJECTID": 467262, "OwnerName": "VU & SONS, LLC", "BusinessName": "CAPTAIN SAL'S SEAFOOD & CHICKEN", "Address": "3168 ST CLAUDE AVE", "Suite": null, "City": "NEW ORLEANS", "State": "LA", "Zip": "70117", "PhoneNumber": null, "BusinessType": "1104 - FISH & SEAFOOD MARKETS" }, "geometry": { "type": "Point", "coordinates": [ -90.04264675726678, 29.967101679824733 ] } },
{ "type": "Feature", "properties": { "OBJECTID": 467263, "OwnerName": "CASTNET SEAFOOD INC", "BusinessName": "CASTNET", "Address": "10826 HAYNE BLVD", "Suite": "", "City": "NEW ORLEANS", "State": "LA", "Zip": "70127", "PhoneNumber": null, "BusinessType": "1104 - FISH & SEAFOOD MARKETS" }, "geometry": { "type": "Point", "coordinates": [ -89.979026561460302, 30.051703843971733 ] } },
{ "type": "Feature", "properties": { "OBJECTID": 467264, "OwnerName": "CENTRAL CITY GROCERY #3, INC.", "BusinessName": "CENTRAL CITY GROCERY #3", "Address": "2611 WASHINGTON AVE", "Suite": null, "City": "NEW ORLEANS", "State": "LA", "Zip": "70113", "PhoneNumber": null, "BusinessType": "1101 - CONVENIENCE STORES" }, "geometry": { "type": "Point", "coordinates": [ -90.092276675017828, 29.939631140244956 ] } },
{ "type": "Feature", "properties": { "OBJECTID": 467265, "OwnerName": "CENTRAL GROCERY CO. LLC", "BusinessName": "CENTRAL GROCERY CO.", "Address": "923 DECATUR ST", "Suite": null, "City": "NEW ORLEANS", "State": "LA", "Zip": "70116", "PhoneNumber": "504-523-1620", "BusinessType": "1101 - CONVENIENCE STORES" }, "geometry": { "type": "Point", "coordinates": [ -90.061051429526358, 29.958835382612303 ] } },
{ "type": "Feature", "properties": { "OBJECTID": 467266, "OwnerName": "TRAN FAMILY VENTURES, LLC", "BusinessName": "CHEF CHEVRON", "Address": "13301 CHEF MENTEUR HWY", "Suite": null, "City": "NEW ORLEANS", "State": "LA", "Zip": "70129", "PhoneNumber": "504-254-8984", "BusinessType": "1101 - CONVENIENCE STORES" }, "geometry": { "type": "Point", "coordinates": [ -89.927411706044026, 30.031851359283426 ] } },
{ "type": "Feature", "properties": { "OBJECTID": 467267, "OwnerName": "AMA DISCOUNT, INC", "BusinessName": "CHEF DISCOUNT MARKET", "Address": "10833 CHEF MENTEUR HWY", "Suite": null, "City": "NEW ORLEANS", "State": "LA", "Zip": "70127", "PhoneNumber": "504-329-8179", "BusinessType": "1106 - GROCERY (EXC CONVENIENCE) STORES" }, "geometry": { "type": "Point", "coordinates": [ -89.959536188256749, 30.021036409390035 ] } },
{ "type": "Feature", "properties": { "OBJECTID": 467268, "OwnerName": "CHEF FUEL LLC", "BusinessName": "CHEF FUEL LLC", "Address": "6711 CHEF MENTEUR HWY", "Suite": null, "City": "NEW ORLEANS", "State": "LA", "Zip": "70126", "PhoneNumber": null, "BusinessType": "1101 - CONVENIENCE STORES" }, "geometry": { "type": "Point", "coordinates": [ -90.010462442348427, 30.011375732797465 ] } },
{ "type": "Feature", "properties": { "OBJECTID": 467269, "OwnerName": "LOUIS VIAVANT BOAT HARBOVIAVANT, GEORGE L", "BusinessName": "CHEF HARBOR", "Address": "21135 CHEF MENTEUR HWY", "Suite": null, "City": "NEW ORLEANS", "State": "LA", "Zip": "70129", "PhoneNumber": "504-662-5511", "BusinessType": "1111 - SPECIALTY FOOD STORES, ALL OTHER" }, "geometry": { "type": "Point", "coordinates": [ -89.801162595894027, 30.071416277476082 ] } },
{ "type": "Feature", "properties": { "OBJECTID": 467270, "OwnerName": "CHEF MARKET,LLC", "BusinessName": "CHEF MARKET", "Address": "14400 CHEF MENTEUR HWY", "Suite": null, "City": "NEW ORLEANS", "State": "LA", "Zip": "70129", "PhoneNumber": null, "BusinessType": "1101 - CONVENIENCE STORES" }, "geometry": { "type": "Point", "coordinates": [ -89.911367964934186, 30.035968125017199 ] } },
{ "type": "Feature", "properties": { "OBJECTID": 467271, "OwnerName": "CHICKEN MART, INC", "BusinessName": "CHICKEN MART", "Address": "2200 SIMON BOLIVAR AVE", "Suite": null, "City": "NEW ORLEANS", "State": "LA", "Zip": "70113", "PhoneNumber": "504-522-8893", "BusinessType": "1103 - MEAT MARKETS" }, "geometry": { "type": "Point", "coordinates": [ -90.085086322362272, 29.93874524977252 ] } },
{ "type": "Feature", "properties": { "OBJECTID": 467272, "OwnerName": "CHICKEN MART II LLC", "BusinessName": "CHICKEN MART II", "Address": "5601 ST CLAUDE AVE", "Suite": null, "City": "NEW ORLEANS", "State": "LA", "Zip": "70117", "PhoneNumber": null, "BusinessType": "1103 - MEAT MARKETS" }, "geometry": { "type": "Point", "coordinates": [ -90.015453644772379, 29.961378293958774 ] } },
{ "type": "Feature", "properties": { "OBJECTID": 467273, "OwnerName": "KAWTHAR ESMAIL", "BusinessName": "CHIPPEWA FOOD STORE", "Address": "1684 CHIPPEWA ST", "Suite": null, "City": "NEW ORLEANS", "State": "LA", "Zip": "70130", "PhoneNumber": null, "BusinessType": "1101 - CONVENIENCE STORES" }, "geometry": { "type": "Point", "coordinates": [ -90.070068409210833, 29.929768744100272 ] } },
{ "type": "Feature", "properties": { "OBJECTID": 467274, "OwnerName": "CHRIS SPECIALTY FOODS LLC", "BusinessName": "CHRIS SPECIALTY FOODS", "Address": "6251 WEST END BLVD", "Suite": null, "City": "NEW ORLEANS", "State": "LA", "Zip": "70124", "PhoneNumber": null, "BusinessType": "1103 - MEAT MARKETS" }, "geometry": { "type": "Point", "coordinates": [ -90.11447535974709, 30.004985279349594 ] } },
{ "type": "Feature", "properties": { "OBJECTID": 467275, "OwnerName": "THUMBS UP RACE TWELVE LLC", "BusinessName": "CIEL MARKET", "Address": "2801 MAGAZINE ST", "Suite": "STE. 4", "City": "NEW ORLEANS", "State": "LA", "Zip": "70115", "PhoneNumber": null, "BusinessType": "1101 - CONVENIENCE STORES" }, "geometry": { "type": "Point", "coordinates": [ -90.082706506994796, 29.926252649772078 ] } },
{ "type": "Feature", "properties": { "OBJECTID": 467276, "OwnerName": "THUMBS UP RACE 8, LLC.", "BusinessName": "CIEL MARKET", "Address": "7133 ST CHARLES AVE", "Suite": null, "City": "NEW ORLEANS", "State": "LA", "Zip": "70118", "PhoneNumber": null, "BusinessType": "1101 - CONVENIENCE STORES" }, "geometry": { "type": "Point", "coordinates": [ -90.126423004678927, 29.937415855340536 ] } },
{ "type": "Feature", "properties": { "OBJECTID": 467277, "OwnerName": "LAYLA LLC", "BusinessName": "CIRCLE H MEAT MARKET", "Address": "1600 ST BERNARD AVE", "Suite": null, "City": "NEW ORLEANS", "State": "LA", "Zip": "70116", "PhoneNumber": null, "BusinessType": "1103 - MEAT MARKETS" }, "geometry": { "type": "Point", "coordinates": [ -90.066368348801205, 29.973370699281681 ] } },
{ "type": "Feature", "properties": { "OBJECTID": 467278, "OwnerName": "CIRCLE K STORES, INC.", "BusinessName": "CIRCLE K #2707672", "Address": "704 HOWARD AVE", "Suite": null, "City": "NEW ORLEANS", "State": "LA", "Zip": "70130", "PhoneNumber": "504-586-3042", "BusinessType": "1101 - CONVENIENCE STORES" }, "geometry": { "type": "Point", "coordinates": [ -90.073182612543121, 29.943511889095394 ] } },
{ "type": "Feature", "properties": { "OBJECTID": 467279, "OwnerName": "CIRCLE K STORES, INC.", "BusinessName": "CIRCLE K #2707673", "Address": "3725 S CARROLLTON AVE", "Suite": null, "City": "NEW ORLEANS", "State": "LA", "Zip": "70118", "PhoneNumber": "504-486-8377", "BusinessType": "1101 - CONVENIENCE STORES" }, "geometry": { "type": "Point", "coordinates": [ -90.109986602005037, 29.96522707860758 ] } },
{ "type": "Feature", "properties": { "OBJECTID": 467280, "OwnerName": "CIRCLE K STORES INC", "BusinessName": "CIRCLE K #4906", "Address": "6229 S CLAIBORNE AVE", "Suite": null, "City": "NEW ORLEANS", "State": "LA", "Zip": "70125", "PhoneNumber": "504-861-9107", "BusinessType": "1101 - CONVENIENCE STORES" }, "geometry": { "type": "Point", "coordinates": [ -90.113419520220873, 29.946207863373999 ] } },
{ "type": "Feature", "properties": { "OBJECTID": 467281, "OwnerName": "CK'S HOT SHOPPE, LLC", "BusinessName": "CK'S  HOT SHOPPE", "Address": "1433 BARONNE ST", "Suite": null, "City": "NEW ORLEANS", "State": "LA", "Zip": "70113", "PhoneNumber": "504-309-5150", "BusinessType": "1106 - GROCERY (EXC CONVENIENCE) STORES" }, "geometry": { "type": "Point", "coordinates": [ -90.078000362257598, 29.940628064529818 ] } },
{ "type": "Feature", "properties": { "OBJECTID": 467282, "OwnerName": "SOUTH CLAIBORNE OPERATIONS", "BusinessName": "CLAIBORNE #165", "Address": "4101 S CLAIBORNE AVE", "Suite": null, "City": "NEW ORLEANS", "State": "LA", "Zip": "70125", "PhoneNumber": null, "BusinessType": "1101 - CONVENIENCE STORES" }, "geometry": { "type": "Point", "coordinates": [ -90.100217704487648, 29.940832037625512 ] } },
{ "type": "Feature", "properties": { "OBJECTID": 467283, "OwnerName": "AWNI, INC", "BusinessName": "CLAIBORNE SUPERMARKET", "Address": "2541 N CLAIBORNE AVE", "Suite": null, "City": "NEW ORLEANS", "State": "LA", "Zip": "70117", "PhoneNumber": "504-948-2327", "BusinessType": "1106 - GROCERY (EXC CONVENIENCE) STORES" }, "geometry": { "type": "Point", "coordinates": [ -90.049021257162551, 29.974264440136476 ] } },
{ "type": "Feature", "properties": { "OBJECTID": 467284, "OwnerName": "DURGA ENTERPRISES, INC", "BusinessName": "COMPAK FOOD & DELI", "Address": "501 DAUPHINE ST", "Suite": null, "City": "NEW ORLEANS", "State": "LA", "Zip": "70112", "PhoneNumber": "504-525-2311", "BusinessType": "1101 - CONVENIENCE STORES" }, "geometry": { "type": "Point", "coordinates": [ -90.076989294556824, 29.951922709288411 ] } },
{ "type": "Feature", "properties": { "OBJECTID": 467285, "OwnerName": "COSTCO WHOLESALE CORPORATION", "BusinessName": "COSTCO WHOLESALE 1147", "Address": "3900 DUBLIN ST", "Suite": null, "City": "NEW ORLEANS", "State": "LA", "Zip": "70118", "PhoneNumber": "425-313-8100", "BusinessType": "1106 - GROCERY (EXC CONVENIENCE) STORES" }, "geometry": { "type": "Point", "coordinates": [ -90.110647659927153, 29.967936655127982 ] } },
{ "type": "Feature", "properties": { "OBJECTID": 467286, "OwnerName": "JOS FEIN CATERERS, INC", "BusinessName": "COURT LIQUORS", "Address": "618-620 BOURBON ST", "Suite": null, "City": "NEW ORLEANS", "State": "LA", "Zip": "70130", "PhoneNumber": "504-581-5804", "BusinessType": "1101 - CONVENIENCE STORES" }, "geometry": { "type": "Point", "coordinates": [ -90.076989294556824, 29.951922709288411 ] } },
{ "type": "Feature", "properties": { "OBJECTID": 467287, "OwnerName": "CREOLE COUNTRY INC", "BusinessName": "CREOLE COUNTRY INC", "Address": "512 DAVID ST", "Suite": null, "City": "NEW ORLEANS", "State": "LA", "Zip": "70119", "PhoneNumber": null, "BusinessType": "1103 - MEAT MARKETS" }, "geometry": { "type": "Point", "coordinates": [ -90.097981138239135, 29.978399614138013 ] } },
{ "type": "Feature", "properties": { "OBJECTID": 467288, "OwnerName": "MAGNOLIA ENTERPRISES INC", "BusinessName": "CREOLE SUPERSTORE", "Address": "623 CANAL ST", "Suite": null, "City": "NEW ORLEANS", "State": "LA", "Zip": "70130", "PhoneNumber": "504-586-0703", "BusinessType": "1101 - CONVENIENCE STORES" }, "geometry": { "type": "Point", "coordinates": [ -90.068593727770008, 29.953176363279567 ] } },
{ "type": "Feature", "properties": { "OBJECTID": 467289, "OwnerName": "HILTON MANAGEMENT LLC", "BusinessName": "CRESCENT CITY MARKETPLACE", "Address": "2 POYDRAS ST", "Suite": null, "City": "NEW ORLEANS", "State": "LA", "Zip": "70130", "PhoneNumber": null, "BusinessType": "1106 - GROCERY (EXC CONVENIENCE) STORES" }, "geometry": { "type": "Point", "coordinates": [ -90.063293825976814, 29.94773526893049 ] } },
{ "type": "Feature", "properties": { "OBJECTID": 467290, "OwnerName": "DALYA LLC", "BusinessName": "CROWDER CENTER", "Address": "5769 CROWDER BLVD", "Suite": null, "City": "NEW ORLEANS", "State": "LA", "Zip": "70127", "PhoneNumber": "504-241-6555", "BusinessType": "1101 - CONVENIENCE STORES" }, "geometry": { "type": "Point", "coordinates": [ -89.992314528295324, 30.028475642790102 ] } },
{ "type": "Feature", "properties": { "OBJECTID": 467291, "OwnerName": "HENRIETTE KAMBI", "BusinessName": "CTN GROCERY", "Address": "2931 BROADWAY ST", "Suite": null, "City": "NEW ORLEANS", "State": "LA", "Zip": "70125", "PhoneNumber": null, "BusinessType": "1101 - CONVENIENCE STORES" }, "geometry": { "type": "Point", "coordinates": [ -90.11173505759443, 29.956559532172342 ] } },
{ "type": "Feature", "properties": { "OBJECTID": 467292, "OwnerName": "LOUISIANA CVS PHARMACY, L.L.C.", "BusinessName": "CVS/ PHARMACY # 167", "Address": "4401 S CLAIBORNE AVE", "Suite": null, "City": "NEW ORLEANS", "State": "LA", "Zip": "70125", "PhoneNumber": "401-765-1500", "BusinessType": "1101 - CONVENIENCE STORES" }, "geometry": { "type": "Point", "coordinates": [ -90.104009745867984, 29.940545167696342 ] } },
{ "type": "Feature", "properties": { "OBJECTID": 467293, "OwnerName": "K & O BROTHERS LLC", "BusinessName": "D & M DISCOUNT STORE", "Address": "2037 N BROAD ST", "Suite": null, "City": "NEW ORLEANS", "State": "LA", "Zip": "70119", "PhoneNumber": "504-235-3478", "BusinessType": "1106 - GROCERY (EXC CONVENIENCE) STORES" }, "geometry": { "type": "Point", "coordinates": [ -90.070673344235161, 29.984927088371741 ] } },
{ "type": "Feature", "properties": { "OBJECTID": 467294, "OwnerName": "DANG ENTERPRISE , INC.", "BusinessName": "DANNY FOOD STORE", "Address": "2101 ELYSIAN FIELDS AVE", "Suite": null, "City": "NEW ORLEANS", "State": "LA", "Zip": "70117", "PhoneNumber": null, "BusinessType": "1106 - GROCERY (EXC CONVENIENCE) STORES" }, "geometry": { "type": "Point", "coordinates": [ -90.057212000721762, 29.97881429230581 ] } },
{ "type": "Feature", "properties": { "OBJECTID": 467295, "OwnerName": "P & N ENTERPRISES INC", "BusinessName": "DANNY'S PACKAGE LIQUOR & SEAFOOD MKT", "Address": "1812 ONZAGA ST", "Suite": null, "City": "NEW ORLEANS", "State": "LA", "Zip": "70116", "PhoneNumber": "504-949-8666", "BusinessType": "1101 - CONVENIENCE STORES" }, "geometry": { "type": "Point", "coordinates": [ -90.067049441457954, 29.974737015023123 ] } },
{ "type": "Feature", "properties": { "OBJECTID": 467296, "OwnerName": "WILLIAMS, WILLIE JR", "BusinessName": "DAP MINISTRIES OUTLET", "Address": "1234 PRESS DR", "Suite": null, "City": "NEW ORLEANS", "State": "LA", "Zip": "70117", "PhoneNumber": null, "BusinessType": "1501 - DURABLE GOODS WHLSRS, OTHER MISC" }, "geometry": { "type": "Point", "coordinates": [ -90.076989294556824, 29.951922709288411 ] } },
{ "type": "Feature", "properties": { "OBJECTID": 467297, "OwnerName": "DAT'S CAJUN SEAFOOD, LLC", "BusinessName": "DAT'S CAJUN SEAFOOD", "Address": "3020 GENERAL DE GAULLE DR", "Suite": null, "City": "NEW ORLEANS", "State": "LA", "Zip": "70114", "PhoneNumber": "504-362-8252", "BusinessType": "1104 - FISH & SEAFOOD MARKETS" }, "geometry": { "type": "Point", "coordinates": [ -90.025441724897689, 29.927311712994332 ] } },
{ "type": "Feature", "properties": { "OBJECTID": 467298, "OwnerName": "DAUPHINE FOOD MART,LLC", "BusinessName": "DAUPHINE FOOD MART", "Address": "215 DAUPHINE ST", "Suite": null, "City": "NEW ORLEANS", "State": "LA", "Zip": "70112", "PhoneNumber": null, "BusinessType": "1101 - CONVENIENCE STORES" }, "geometry": { "type": "Point", "coordinates": [ -90.069829056332367, 29.955721905122381 ] } },
{ "type": "Feature", "properties": { "OBJECTID": 467299, "OwnerName": "BINH VAN CORPORATION", "BusinessName": "DAY & NIGHT DISCOUNT", "Address": "4039 LOUISA ST", "Suite": "B", "City": "NEW ORLEANS", "State": "LA", "Zip": "70126", "PhoneNumber": null, "BusinessType": "1101 - CONVENIENCE STORES" }, "geometry": { "type": "Point", "coordinates": [ -90.034917792074552, 30.001839081851603 ] } },
{ "type": "Feature", "properties": { "OBJECTID": 467300, "OwnerName": "DEEP SOUTH GROCERY CO   INC", "BusinessName": "DEEP SOUTH TRADING CO", "Address": "600 CANAL ST", "Suite": null, "City": "NEW ORLEANS", "State": "LA", "Zip": "70130", "PhoneNumber": "504-586-8753", "BusinessType": "1101 - CONVENIENCE STORES" }, "geometry": { "type": "Point", "coordinates": [ -90.068459565508817, 29.952451187845963 ] } },
{ "type": "Feature", "properties": { "OBJECTID": 467301, "OwnerName": "KING SUPERMARKET", "BusinessName": "DEXEMCA INC", "Address": "14321 CHEF MENTEUR HWY", "Suite": null, "City": "NEW ORLEANS", "State": "LA", "Zip": "70116", "PhoneNumber": null, "BusinessType": "1106 - GROCERY (EXC CONVENIENCE) STORES" }, "geometry": { "type": "Point", "coordinates": [ -89.912803464447634, 30.036429741881594 ] } },
{ "type": "Feature", "properties": { "OBJECTID": 467302, "OwnerName": "T & HO LLC", "BusinessName": "DISCOUNT CITY", "Address": "2013 S CLAIBORNE AVE", "Suite": "D", "City": "NEW ORLEANS", "State": "LA", "Zip": "70125", "PhoneNumber": null, "BusinessType": "1101 - CONVENIENCE STORES" }, "geometry": { "type": "Point", "coordinates": [ -90.089249979978192, 29.94640185686514 ] } },
{ "type": "Feature", "properties": { "OBJECTID": 467303, "OwnerName": "ARIYAN INC", "BusinessName": "DISCOUNT CORNER", "Address": "8733 S CLAIBORNE AVE", "Suite": null, "City": "NEW ORLEANS", "State": "LA", "Zip": "70118", "PhoneNumber": "504-864-0057", "BusinessType": "1101 - CONVENIENCE STORES" }, "geometry": { "type": "Point", "coordinates": [ -90.126049679721561, 29.960795598781555 ] } },
{ "type": "Feature", "properties": { "OBJECTID": 467304, "OwnerName": "2 NY FASHIONS INC", "BusinessName": "DISCOUNT EXPRESS", "Address": "2000 ESPLANADE AVE", "Suite": null, "City": "NEW ORLEANS", "State": "LA", "Zip": "70116", "PhoneNumber": "504-433-8600", "BusinessType": "1101 - CONVENIENCE STORES" }, "geometry": { "type": "Point", "coordinates": [ -90.072379747629284, 29.97176510801167 ] } },
{ "type": "Feature", "properties": { "OBJECTID": 467305, "OwnerName": "DEEP SOUTH GROCERY CO   INC", "BusinessName": "DIXIE MARKET", "Address": "501 CANAL ST", "Suite": null, "City": "NEW ORLEANS", "State": "LA", "Zip": "70130", "PhoneNumber": "504-586-8753", "BusinessType": "1101 - CONVENIENCE STORES" }, "geometry": { "type": "Point", "coordinates": [ -90.067111730329884, 29.952157164805758 ] } },
{ "type": "Feature", "properties": { "OBJECTID": 467306, "OwnerName": "DON'S FOOD MART, LLC", "BusinessName": "DON'S FOOD  MART", "Address": "1730 EAGLE ST", "Suite": null, "City": "NEW ORLEANS", "State": "LA", "Zip": "70118", "PhoneNumber": null, "BusinessType": "1101 - CONVENIENCE STORES" }, "geometry": { "type": "Point", "coordinates": [ -90.131284379849546, 29.956317025151908 ] } },
{ "type": "Feature", "properties": { "OBJECTID": 467307, "OwnerName": "FADI INC", "BusinessName": "DOWNMAN SUPERMARKET", "Address": "4827 DOWNMAN RD", "Suite": null, "City": "NEW ORLEANS", "State": "LA", "Zip": "70126", "PhoneNumber": "504-242-2882", "BusinessType": "1101 - CONVENIENCE STORES" }, "geometry": { "type": "Point", "coordinates": [ -90.021260380170588, 30.01823003509281 ] } },
{ "type": "Feature", "properties": { "OBJECTID": 467308, "OwnerName": "E&L MART", "BusinessName": "E&L MART", "Address": "1410 N BROAD ST", "Suite": null, "City": "NEW ORLEANS", "State": "LA", "Zip": "70119", "PhoneNumber": null, "BusinessType": "1106 - GROCERY (EXC CONVENIENCE) STORES" }, "geometry": { "type": "Point", "coordinates": [ -90.077682298640525, 29.976371599768143 ] } },
{ "type": "Feature", "properties": { "OBJECTID": 467309, "OwnerName": "2000 EARHART BOULEVARD,LLC", "BusinessName": "EARHART 169", "Address": "2000 EARHART BLVD", "Suite": null, "City": "NEW ORLEANS", "State": "LA", "Zip": "70113", "PhoneNumber": null, "BusinessType": "1101 - CONVENIENCE STORES" }, "geometry": { "type": "Point", "coordinates": [ -90.079161074225581, 29.944684686487669 ] } },
{ "type": "Feature", "properties": { "OBJECTID": 467310, "OwnerName": "EAST SIDE CASH & CARRY,", "BusinessName": "EAST SIDE CASH & CARRY INC", "Address": "7943 CHEF MENTEUR HWY", "Suite": null, "City": "NEW ORLEANS", "State": "LA", "Zip": "70126", "PhoneNumber": "504-243-9797", "BusinessType": "1101 - CONVENIENCE STORES" }, "geometry": { "type": "Point", "coordinates": [ -89.993247916412386, 30.013710001683485 ] } },
{ "type": "Feature", "properties": { "OBJECTID": 467311, "OwnerName": "SARA GROCERY INC", "BusinessName": "EASTOVER MARKET", "Address": "7050 BULLARD AVE", "Suite": null, "City": "NEW ORLEANS", "State": "LA", "Zip": "70128", "PhoneNumber": "504-244-0741", "BusinessType": "1106 - GROCERY (EXC CONVENIENCE) STORES" }, "geometry": { "type": "Point", "coordinates": [ -89.963349587694253, 30.048268165909192 ] } },
{ "type": "Feature", "properties": { "OBJECTID": 467312, "OwnerName": "M & S  OIL SERVICES, L.L.C.", "BusinessName": "ELYSIAN FIELDS SHELL", "Address": "6300 ELYSIAN FIELDS AVE", "Suite": null, "City": "NEW ORLEANS", "State": "LA", "Zip": "70122", "PhoneNumber": "504-884-8766", "BusinessType": "1101 - CONVENIENCE STORES" }, "geometry": { "type": "Point", "coordinates": [ -90.061834922164834, 30.023425087105942 ] } },
{ "type": "Feature", "properties": { "OBJECTID": 467313, "OwnerName": "ALLAN'S GROCERY LLC", "BusinessName": "ESPLANADE MINI MART", "Address": "839 ESPLANADE AVE", "Suite": null, "City": "NEW ORLEANS", "State": "LA", "Zip": "70116", "PhoneNumber": "504-329-8179", "BusinessType": "1101 - CONVENIENCE STORES" }, "geometry": { "type": "Point", "coordinates": [ -90.061506984557994, 29.964690060341674 ] } },
{ "type": "Feature", "properties": { "OBJECTID": 467314, "OwnerName": "MALAK 2000 INC", "BusinessName": "EVERGREEN SUPERMARKET", "Address": "3011 SANDRA DR", "Suite": null, "City": "NEW ORLEANS", "State": "LA", "Zip": "70114", "PhoneNumber": "504-368-1581", "BusinessType": "1101 - CONVENIENCE STORES" }, "geometry": { "type": "Point", "coordinates": [ -90.024856015032427, 29.928114644834331 ] } },
{ "type": "Feature", "properties": { "OBJECTID": 467315, "OwnerName": "SHENGLIN,LLC", "BusinessName": "EZGO", "Address": "3701 S CLAIBORNE AVE", "Suite": null, "City": "NEW ORLEANS", "State": "LA", "Zip": "70125", "PhoneNumber": "504-473-6940", "BusinessType": "1106 - GROCERY (EXC CONVENIENCE) STORES" }, "geometry": { "type": "Point", "coordinates": [ -90.099010576936507, 29.941069657973532 ] } },
{ "type": "Feature", "properties": { "OBJECTID": 467316, "OwnerName": "FAIR ZONE FOOD STORE 2 LLC", "BusinessName": "FAIR ZONE FOOD STORE 2", "Address": "1825 GENTILLY BLVD", "Suite": null, "City": "NEW ORLEANS", "State": "LA", "Zip": "70119", "PhoneNumber": "504-461-6175", "BusinessType": "1101 - CONVENIENCE STORES" }, "geometry": { "type": "Point", "coordinates": [ -90.076582892185272, 29.985725798201496 ] } },
{ "type": "Feature", "properties": { "OBJECTID": 467317, "OwnerName": "FAMILY DISCOUNT STORE INC", "BusinessName": "FAMILY DISCOUNT STORE", "Address": "1935 LOUISIANA AVE", "Suite": null, "City": "NEW ORLEANS", "State": "LA", "Zip": "70115", "PhoneNumber": "504-895-4272", "BusinessType": "1101 - CONVENIENCE STORES" }, "geometry": { "type": "Point", "coordinates": [ -90.092992982990324, 29.931916183707916 ] } },
{ "type": "Feature", "properties": { "OBJECTID": 467318, "OwnerName": "RANCH, INC", "BusinessName": "FAMILY RANCH MARKET", "Address": "11950 HAYNE BLVD", "Suite": null, "City": "NEW ORLEANS", "State": "LA", "Zip": "70128", "PhoneNumber": "504-243-1944", "BusinessType": "1106 - GROCERY (EXC CONVENIENCE) STORES" }, "geometry": { "type": "Point", "coordinates": [ -89.969569805860928, 30.057042239228398 ] } },
{ "type": "Feature", "properties": { "OBJECTID": 467319, "OwnerName": "MONA REALTY LLC", "BusinessName": "FAST STOP", "Address": "2745 S BROAD ST", "Suite": null, "City": "NEW ORLEANS", "State": "LA", "Zip": "70125", "PhoneNumber": null, "BusinessType": "1106 - GROCERY (EXC CONVENIENCE) STORES" }, "geometry": { "type": "Point", "coordinates": [ -90.100564500452847, 29.951143569012451 ] } },
{ "type": "Feature", "properties": { "OBJECTID": 467320, "OwnerName": "FAST STOP OF DOWNMAN,LLC", "BusinessName": "FAST STOP", "Address": "7200 DOWNMAN RD", "Suite": null, "City": "NEW ORLEANS", "State": "LA", "Zip": "70126", "PhoneNumber": null, "BusinessType": "1101 - CONVENIENCE STORES" }, "geometry": { "type": "Point", "coordinates": [ -90.02459528596772, 30.025278143097779 ] } },
{ "type": "Feature", "properties": { "OBJECTID": 467321, "OwnerName": "FAST STOP OF IRISH,LLC", "BusinessName": "FAST STOP OF IRISH", "Address": "3684 RIDGEWAY BLVD", "Suite": "STE #A", "City": "NEW ORLEANS", "State": "LA", "Zip": "70129", "PhoneNumber": null, "BusinessType": "1101 - CONVENIENCE STORES" }, "geometry": { "type": "Point", "coordinates": [ -89.861794209623326, 30.145278583544815 ] } },
{ "type": "Feature", "properties": { "OBJECTID": 467322, "OwnerName": "FAT BOY PANTRY LOUISIANA,LLC", "BusinessName": "FAT BOY PANTRY", "Address": "1302 MAGAZINE ST", "Suite": null, "City": "NEW ORLEANS", "State": "LA", "Zip": "70130", "PhoneNumber": null, "BusinessType": "1106 - GROCERY (EXC CONVENIENCE) STORES" }, "geometry": { "type": "Point", "coordinates": [ -90.071234696352874, 29.938076735378282 ] } },
{ "type": "Feature", "properties": { "OBJECTID": 467323, "OwnerName": "FAUBOURG FRESH MARKET, LLC", "BusinessName": "FAUBOURG FRESH MARKET", "Address": "541 BERMUDA ST", "Suite": null, "City": "NEW ORLEANS", "State": "LA", "Zip": "70114", "PhoneNumber": null, "BusinessType": "1106 - GROCERY (EXC CONVENIENCE) STORES" }, "geometry": { "type": "Point", "coordinates": [ -90.051260302513512, 29.950789428730513 ] } },
{ "type": "Feature", "properties": { "OBJECTID": 467324, "OwnerName": "SHIVAS LLC", "BusinessName": "FOOD PLUS", "Address": "6232 CHEF MENTEUR HWY", "Suite": "UNIT A", "City": "NEW ORLEANS", "State": "LA", "Zip": "70126", "PhoneNumber": "504-246-2628", "BusinessType": "1106 - GROCERY (EXC CONVENIENCE) STORES" }, "geometry": { "type": "Point", "coordinates": [ -90.014875401180916, 30.010130317940568 ] } },
{ "type": "Feature", "properties": { "OBJECTID": 467325, "OwnerName": "FRADY, JOSEPH M", "BusinessName": "FRADY'S ONE STOP FOOD STORE", "Address": "3231 DAUPHINE ST", "Suite": null, "City": "NEW ORLEANS", "State": "LA", "Zip": "70117", "PhoneNumber": null, "BusinessType": "1101 - CONVENIENCE STORES" }, "geometry": { "type": "Point", "coordinates": [ -90.042603784028969, 29.963946443833905 ] } },
{ "type": "Feature", "properties": { "OBJECTID": 467326, "OwnerName": "SIX BROTHERS LLC", "BusinessName": "FRANCE MEAT MARKET", "Address": "1339 FRANCE ST", "Suite": null, "City": "NEW ORLEANS", "State": "LA", "Zip": "70117", "PhoneNumber": "504-949-2407", "BusinessType": "1103 - MEAT MARKETS" }, "geometry": { "type": "Point", "coordinates": [ -90.076989294556824, 29.951922709288411 ] } },
{ "type": "Feature", "properties": { "OBJECTID": 467327, "OwnerName": "MALAK INC", "BusinessName": "FRANKLIN DISCOUNT", "Address": "6100 FRANKLIN AVE", "Suite": null, "City": "NEW ORLEANS", "State": "LA", "Zip": "70122", "PhoneNumber": null, "BusinessType": "1106 - GROCERY (EXC CONVENIENCE) STORES" }, "geometry": { "type": "Point", "coordinates": [ -90.052079865595175, 30.021643536451549 ] } },
{ "type": "Feature", "properties": { "OBJECTID": 467328, "OwnerName": "FRANKLIN AVENUE MARKET LLC", "BusinessName": "FRANKLIN FOOD MART", "Address": "1843 FRANKLIN AVE", "Suite": null, "City": "NEW ORLEANS", "State": "LA", "Zip": "70117", "PhoneNumber": null, "BusinessType": "1101 - CONVENIENCE STORES" }, "geometry": { "type": "Point", "coordinates": [ -90.048008168510833, 29.977125829773865 ] } },
{ "type": "Feature", "properties": { "OBJECTID": 467329, "OwnerName": "FRENCH QUATER FOOD MART", "BusinessName": "FRENCH QUATER FOOD MART", "Address": "1534 SAINT LOUIS ST", "Suite": "A", "City": "NEW ORLEANS", "State": "LA", "Zip": "70112", "PhoneNumber": null, "BusinessType": "1101 - CONVENIENCE STORES" }, "geometry": { "type": "Point", "coordinates": [ -90.073399463626771, 29.961144757696495 ] } },
{ "type": "Feature", "properties": { "OBJECTID": 467330, "OwnerName": "JENNEFER TRAN INC", "BusinessName": "FRIENDLY SUPERMARKET", "Address": "2704 LA SALLE ST", "Suite": null, "City": "NEW ORLEANS", "State": "LA", "Zip": "70113", "PhoneNumber": null, "BusinessType": "1101 - CONVENIENCE STORES" }, "geometry": { "type": "Point", "coordinates": [ -90.09016190184272, 29.937801891840898 ] } },
{ "type": "Feature", "properties": { "OBJECTID": 467331, "OwnerName": "FUEL N MART", "BusinessName": "FUEL N MART", "Address": "5201 N CLAIBORNE AVE", "Suite": null, "City": "NEW ORLEANS", "State": "LA", "Zip": "70117", "PhoneNumber": null, "BusinessType": "1101 - CONVENIENCE STORES" }, "geometry": { "type": "Point", "coordinates": [ -90.018374924860737, 29.967454849946613 ] } },
{ "type": "Feature", "properties": { "OBJECTID": 467332, "OwnerName": "ANZ LLC", "BusinessName": "FUEL N MART", "Address": "7220 HAYNE BLVD", "Suite": null, "City": "NEW ORLEANS", "State": "LA", "Zip": "70126", "PhoneNumber": null, "BusinessType": "1101 - CONVENIENCE STORES" }, "geometry": { "type": "Point", "coordinates": [ -90.011466385707337, 30.037513036258357 ] } },
{ "type": "Feature", "properties": { "OBJECTID": 467333, "OwnerName": "FUEL ZONE LLC", "BusinessName": "FUEL ZONE", "Address": "4500 CHEF MENTEUR HWY", "Suite": null, "City": "NEW ORLEANS", "State": "LA", "Zip": "70126", "PhoneNumber": null, "BusinessType": "1101 - CONVENIENCE STORES" }, "geometry": { "type": "Point", "coordinates": [ -90.035956879636004, 30.005138918370324 ] } },
{ "type": "Feature", "properties": { "OBJECTID": 467334, "OwnerName": "BURNELL COTLON", "BusinessName": "GALVEZ GOODIES", "Address": "2036 CAFFIN AVE", "Suite": null, "City": "NEW ORLEANS", "State": "LA", "Zip": "70117", "PhoneNumber": "504-319-5886", "BusinessType": "1106 - GROCERY (EXC CONVENIENCE) STORES" }, "geometry": { "type": "Point", "coordinates": [ -90.012855752183384, 29.971371185868861 ] } },
{ "type": "Feature", "properties": { "OBJECTID": 467335, "OwnerName": "GARIFUNA MARKET", "BusinessName": "GARIFUNA MARKET", "Address": "14402 DWYER BLVD", "Suite": null, "City": "NEW ORLEANS", "State": "LA", "Zip": "70129", "PhoneNumber": null, "BusinessType": "1106 - GROCERY (EXC CONVENIENCE) STORES" }, "geometry": { "type": "Point", "coordinates": [ -89.913328321233678, 30.041606935473201 ] } },
{ "type": "Feature", "properties": { "OBJECTID": 467336, "OwnerName": "GENTILLY FOOD MART INC", "BusinessName": "GENTILLY FOOD MART INC", "Address": "1629 GENTILLY BLVD", "Suite": null, "City": "NEW ORLEANS", "State": "LA", "Zip": "70119", "PhoneNumber": null, "BusinessType": "1101 - CONVENIENCE STORES" }, "geometry": { "type": "Point", "coordinates": [ -90.077627154369367, 29.980972783999075 ] } },
{ "type": "Feature", "properties": { "OBJECTID": 467337, "OwnerName": "HILLIARD, GLORIA", "BusinessName": "GLORIA'S GROCERY", "Address": "1800 CONTI ST", "Suite": null, "City": "NEW ORLEANS", "State": "LA", "Zip": "70112", "PhoneNumber": null, "BusinessType": "1101 - CONVENIENCE STORES" }, "geometry": { "type": "Point", "coordinates": [ -90.076688850127283, 29.962241854080606 ] } },
{ "type": "Feature", "properties": { "OBJECTID": 467338, "OwnerName": "TCL FAMILY,LLC", "BusinessName": "GOLDEN EXPRESS", "Address": "400 N BROAD ST", "Suite": null, "City": "NEW ORLEANS", "State": "LA", "Zip": "70119", "PhoneNumber": null, "BusinessType": "1106 - GROCERY (EXC CONVENIENCE) STORES" }, "geometry": { "type": "Point", "coordinates": [ -90.084739222524973, 29.968093863638561 ] } },
{ "type": "Feature", "properties": { "OBJECTID": 467339, "OwnerName": "GB LICENSE, LLC", "BusinessName": "GOPUFF", "Address": "3701 S CLAIBORNE AVE", "Suite": null, "City": "NEW ORLEANS", "State": "LA", "Zip": "70125", "PhoneNumber": "401-327-1254", "BusinessType": "1106 - GROCERY (EXC CONVENIENCE) STORES" }, "geometry": { "type": "Point", "coordinates": [ -90.099010576936507, 29.941069657973532 ] } },
{ "type": "Feature", "properties": { "OBJECTID": 467340, "OwnerName": "TWO HOT CHICKS AND TWO GUYS, LLC", "BusinessName": "GRANDE KREWE", "Address": "511 MARIGNY ST", "Suite": null, "City": "NEW ORLEANS", "State": "LA", "Zip": "70117", "PhoneNumber": null, "BusinessType": "1110 - BEER, WINE & LIQUOR STORES" }, "geometry": { "type": "Point", "coordinates": [ -90.054762599341387, 29.96302630510019 ] } },
{ "type": "Feature", "properties": { "OBJECTID": 467341, "OwnerName": "GUSTE HOMES RESIDENT MANAGEMENT CORPORATION", "BusinessName": "GUSTE HOMES RESIDENT MANAGEMENT CORPORATION", "Address": "1301 SIMON BOLIVAR AVE", "Suite": null, "City": "NEW ORLEANS", "State": "LA", "Zip": "70113", "PhoneNumber": null, "BusinessType": "1106 - GROCERY (EXC CONVENIENCE) STORES" }, "geometry": { "type": "Point", "coordinates": [ -90.080668951256243, 29.943954731005228 ] } },
{ "type": "Feature", "properties": { "OBJECTID": 467342, "OwnerName": "MATHERNE JR, MARVIN", "BusinessName": "GUY'S FOOD STORE", "Address": "5259 MAGAZINE ST", "Suite": null, "City": "NEW ORLEANS", "State": "LA", "Zip": "70115-1851", "PhoneNumber": "504-891-5025", "BusinessType": "1101 - CONVENIENCE STORES" }, "geometry": { "type": "Point", "coordinates": [ -90.112623134570669, 29.920581379950018 ] } },
{ "type": "Feature", "properties": { "OBJECTID": 467343, "OwnerName": "HABIBI GROCERY L.L.C.", "BusinessName": "HABIBI GROCERY", "Address": "9530 HAYNE BLVD", "Suite": null, "City": "NEW ORLEANS", "State": "LA", "Zip": "70127", "PhoneNumber": "504-220-8250", "BusinessType": "1101 - CONVENIENCE STORES" }, "geometry": { "type": "Point", "coordinates": [ -89.989134921084471, 30.046708324490258 ] } },
{ "type": "Feature", "properties": { "OBJECTID": 467344, "OwnerName": "HANDY DISCOUNT INC", "BusinessName": "HANDY DISCOUNT", "Address": "4101 JUMONVILLE ST", "Suite": null, "City": "NEW ORLEANS", "State": "LA", "Zip": "70122", "PhoneNumber": "504-282-9667", "BusinessType": "1106 - GROCERY (EXC CONVENIENCE) STORES" }, "geometry": { "type": "Point", "coordinates": [ -90.078269493959596, 29.998946403644222 ] } },
{ "type": "Feature", "properties": { "OBJECTID": 467345, "OwnerName": "YOUSEF ODEH, LLC", "BusinessName": "HANK'S SEAFOOD & SUPERMARKET", "Address": "2634 ST CLAUDE AVE", "Suite": null, "City": "NEW ORLEANS", "State": "LA", "Zip": "70117", "PhoneNumber": "504-247-3731", "BusinessType": "1101 - CONVENIENCE STORES" }, "geometry": { "type": "Point", "coordinates": [ -90.049458441916101, 29.968660468098644 ] } },
{ "type": "Feature", "properties": { "OBJECTID": 467346, "OwnerName": "MARAH LLC", "BusinessName": "HAPPY DISCOUNT", "Address": "5301 FRANKLIN AVE", "Suite": null, "City": "NEW ORLEANS", "State": "LA", "Zip": "70122", "PhoneNumber": null, "BusinessType": "1105 - FULL SVC RESTAURANTS (TABLE SERVICE)" }, "geometry": { "type": "Point", "coordinates": [ -90.050656676330277, 30.012550600808442 ] } },
{ "type": "Feature", "properties": { "OBJECTID": 467347, "OwnerName": "ASEL INC", "BusinessName": "HAYNE SUPERMARKET", "Address": "6318 HAYNE BLVD", "Suite": null, "City": "NEW ORLEANS", "State": "LA", "Zip": "70126", "PhoneNumber": "504-244-9739", "BusinessType": "1106 - GROCERY (EXC CONVENIENCE) STORES" }, "geometry": { "type": "Point", "coordinates": [ -90.021155486715742, 30.034317301372642 ] } },
{ "type": "Feature", "properties": { "OBJECTID": 467348, "OwnerName": "HUEY LONG FOODS, LLC", "BusinessName": "HUEY LONG FOODS, LLC", "Address": "4333 EUPHROSINE ST", "Suite": null, "City": "NEW ORLEANS", "State": "LA", "Zip": "70125", "PhoneNumber": null, "BusinessType": "1111 - SPECIALTY FOOD STORES, ALL OTHER" }, "geometry": { "type": "Point", "coordinates": [ -90.099967256931578, 29.958690719632116 ] } },
{ "type": "Feature", "properties": { "OBJECTID": 467349, "OwnerName": "250 S BROAD INC", "BusinessName": "IDEAL DISCOUNT SUPERMARKET", "Address": "250 S BROAD ST", "Suite": null, "City": "NEW ORLEANS", "State": "LA", "Zip": "70119", "PhoneNumber": "504-822-4232", "BusinessType": "1106 - GROCERY (EXC CONVENIENCE) STORES" }, "geometry": { "type": "Point", "coordinates": [ -90.08857256585506, 29.963900282876217 ] } },
{ "type": "Feature", "properties": { "OBJECTID": 467350, "OwnerName": "KAKI INC", "BusinessName": "IDEAL SUPER MARKET", "Address": "2436 URSULINES AVE", "Suite": null, "City": "NEW ORLEANS", "State": "LA", "Zip": "70119", "PhoneNumber": "504-821-9339", "BusinessType": "1106 - GROCERY (EXC CONVENIENCE) STORES" }, "geometry": { "type": "Point", "coordinates": [ -90.077557427351422, 29.971907910096412 ] } },
{ "type": "Feature", "properties": { "OBJECTID": 467351, "OwnerName": "MILAND SEAFOOD, INC", "BusinessName": "INLAND SEAFOOD", "Address": "2527 PERDIDO ST", "Suite": null, "City": "NEW ORLEANS", "State": "LA", "Zip": "70119", "PhoneNumber": "504-821-4500", "BusinessType": "0135 - FISH & SEAFOOD WHLSRS" }, "geometry": { "type": "Point", "coordinates": [ -90.09039537550791, 29.958770739886447 ] } },
{ "type": "Feature", "properties": { "OBJECTID": 467352, "OwnerName": "ABJ & R GROCERY,LLC", "BusinessName": "J & P SUPERETTE", "Address": "2941 EAGLE ST", "Suite": null, "City": "NEW ORLEANS", "State": "LA", "Zip": "70118", "PhoneNumber": null, "BusinessType": "1106 - GROCERY (EXC CONVENIENCE) STORES" }, "geometry": { "type": "Point", "coordinates": [ -90.121798454336869, 29.9648683603324 ] } },
{ "type": "Feature", "properties": { "OBJECTID": 467353, "OwnerName": "KIM, YOUNG DUK", "BusinessName": "J C DELI", "Address": "65 FRENCH MARKET PL", "Suite": null, "City": "NEW ORLEANS", "State": "LA", "Zip": "70116", "PhoneNumber": "504-522-2961", "BusinessType": "1101 - CONVENIENCE STORES" }, "geometry": { "type": "Point", "coordinates": [ -90.058664858541093, 29.960791786166169 ] } },
{ "type": "Feature", "properties": { "OBJECTID": 467354, "OwnerName": "LABAN FOOD INC", "BusinessName": "J C FOOD MARKET", "Address": "1532 ST PHILIP ST", "Suite": null, "City": "NEW ORLEANS", "State": "LA", "Zip": "70116", "PhoneNumber": "504-221-8270", "BusinessType": "1101 - CONVENIENCE STORES" }, "geometry": { "type": "Point", "coordinates": [ -90.070314950856286, 29.965630408797097 ] } },
{ "type": "Feature", "properties": { "OBJECTID": 467355, "OwnerName": "JACKSON FOOD STORE INC.", "BusinessName": "JACKSON FOOD STORE", "Address": "2801 JACKSON AVE", "Suite": null, "City": "NEW ORLEANS", "State": "LA", "Zip": "70113", "PhoneNumber": null, "BusinessType": "1106 - GROCERY (EXC CONVENIENCE) STORES" }, "geometry": { "type": "Point", "coordinates": [ -90.089237394850869, 29.94431967640131 ] } },
{ "type": "Feature", "properties": { "OBJECTID": 467356, "OwnerName": "O D S, LLC", "BusinessName": "JEWEL'S FOOD STORE", "Address": "2136 MAGAZINE ST", "Suite": null, "City": "NEW ORLEANS", "State": "LA", "Zip": "70130", "PhoneNumber": "504-524-9355", "BusinessType": "1101 - CONVENIENCE STORES" }, "geometry": { "type": "Point", "coordinates": [ -90.076440640471802, 29.929661233978862 ] } },
{ "type": "Feature", "properties": { "OBJECTID": 467357, "OwnerName": "JOHN & MARY INC", "BusinessName": "JOHN & MARY FOOD STORE", "Address": "3238 ORLEANS AVE", "Suite": null, "City": "NEW ORLEANS", "State": "LA", "Zip": "70119", "PhoneNumber": "504-482-1144", "BusinessType": "1101 - CONVENIENCE STORES" }, "geometry": { "type": "Point", "coordinates": [ -90.089232387221685, 29.974850454541837 ] } },
{ "type": "Feature", "properties": { "OBJECTID": 467358, "OwnerName": "AMEERA AB,LLC", "BusinessName": "JSK DISCOUNT", "Address": "8539 OAK ST", "Suite": "STE #A", "City": "NEW ORLEANS", "State": "LA", "Zip": "70118", "PhoneNumber": null, "BusinessType": "1106 - GROCERY (EXC CONVENIENCE) STORES" }, "geometry": { "type": "Point", "coordinates": [ -90.133750108901836, 29.950718202178919 ] } },
{ "type": "Feature", "properties": { "OBJECTID": 467359, "OwnerName": "K & T COMMUNITY INC.", "BusinessName": "K & T COMMUNITY", "Address": "3733 S CLAIBORNE AVE", "Suite": null, "City": "NEW ORLEANS", "State": "LA", "Zip": "70125", "PhoneNumber": "504-822-8915", "BusinessType": "1101 - CONVENIENCE STORES" }, "geometry": { "type": "Point", "coordinates": [ -90.0997182123415, 29.940895179154371 ] } },
{ "type": "Feature", "properties": { "OBJECTID": 467360, "OwnerName": "K & T FOOD STORE, INC", "BusinessName": "K & T FOOD STORE", "Address": "3204 TULANE AVE", "Suite": null, "City": "NEW ORLEANS", "State": "LA", "Zip": "70119", "PhoneNumber": null, "BusinessType": "1101 - CONVENIENCE STORES" }, "geometry": { "type": "Point", "coordinates": [ -90.096278156114508, 29.964182211189865 ] } },
{ "type": "Feature", "properties": { "OBJECTID": 467361, "OwnerName": "GENGO MICHAEL A", "BusinessName": "KELLER MARKET FOOD STORE", "Address": "1802 MAGNOLIA ST", "Suite": null, "City": "NEW ORLEANS", "State": "LA", "Zip": "70113", "PhoneNumber": "504-523-8648", "BusinessType": "1101 - CONVENIENCE STORES" }, "geometry": { "type": "Point", "coordinates": [ -90.086452516052205, 29.943962410888474 ] } },
{ "type": "Feature", "properties": { "OBJECTID": 467362, "OwnerName": "MAZIN INC", "BusinessName": "KEY FOOD STORE", "Address": "2600 LOUISIANA AVE", "Suite": null, "City": "NEW ORLEANS", "State": "LA", "Zip": "70115", "PhoneNumber": "504-897-6514", "BusinessType": "1101 - CONVENIENCE STORES" }, "geometry": { "type": "Point", "coordinates": [ -90.096031144405899, 29.937276218218109 ] } },
{ "type": "Feature", "properties": { "OBJECTID": 467363, "OwnerName": "IZO LLC", "BusinessName": "KING FOOD STORE", "Address": "4101 JUMONVILLE ST", "Suite": null, "City": "NEW ORLEANS", "State": "LA", "Zip": "70122", "PhoneNumber": null, "BusinessType": "1106 - GROCERY (EXC CONVENIENCE) STORES" }, "geometry": { "type": "Point", "coordinates": [ -90.078269493959596, 29.998946403644222 ] } },
{ "type": "Feature", "properties": { "OBJECTID": 467364, "OwnerName": "ND GROUP ENTERPRISES, IN", "BusinessName": "KWIK PIK", "Address": "11040 MORRISON RD", "Suite": null, "City": "NEW ORLEANS", "State": "LA", "Zip": "70127", "PhoneNumber": "504-606-2833", "BusinessType": "1101 - CONVENIENCE STORES" }, "geometry": { "type": "Point", "coordinates": [ -89.97248717377542, 30.046546723894149 ] } },
{ "type": "Feature", "properties": { "OBJECTID": 467365, "OwnerName": "ATILANO LOPEZ LUIS", "BusinessName": "LA FAVORITA MARKET", "Address": "3640 GENERAL DE GAULLE DR", "Suite": null, "City": "NEW ORLEANS", "State": "LA", "Zip": "70114", "PhoneNumber": "504-217-1184", "BusinessType": "1101 - CONVENIENCE STORES" }, "geometry": { "type": "Point", "coordinates": [ -90.076989294556824, 29.951922709288411 ] } },
{ "type": "Feature", "properties": { "OBJECTID": 467366, "OwnerName": "LA FOOD INC", "BusinessName": "LA FOOD", "Address": "5200 CROWDER BLVD", "Suite": null, "City": "NEW ORLEANS", "State": "LA", "Zip": "70127", "PhoneNumber": "504-638-1350", "BusinessType": "1101 - CONVENIENCE STORES" }, "geometry": { "type": "Point", "coordinates": [ -89.989427025353407, 30.02445032761629 ] } },
{ "type": "Feature", "properties": { "OBJECTID": 467367, "OwnerName": "LAFAYETTE MINI MART, LLC", "BusinessName": "LAFAYETTE MINI MART", "Address": "322 LAFAYETTE ST", "Suite": null, "City": "NEW ORLEANS", "State": "LA", "Zip": "70130", "PhoneNumber": "504-522-1710", "BusinessType": "1101 - CONVENIENCE STORES" }, "geometry": { "type": "Point", "coordinates": [ -90.066684402036685, 29.947361153343316 ] } },
{ "type": "Feature", "properties": { "OBJECTID": 467368, "OwnerName": "LAKESHORE MARINE & FUEL, LLC", "BusinessName": "LAKESHORE MARINE & FUEL, LLC", "Address": "7840 LAKESHORE DR", "Suite": null, "City": "NEW ORLEANS", "State": "LA", "Zip": "70124", "PhoneNumber": "504-723-3717", "BusinessType": "1101 - CONVENIENCE STORES" }, "geometry": { "type": "Point", "coordinates": [ -90.113504034513468, 30.025113324481406 ] } },
{ "type": "Feature", "properties": { "OBJECTID": 467369, "OwnerName": "HARRISON FRESH MARKET, LLC", "BusinessName": "LAKEVIEW GROCERY", "Address": "801 HARRISON AVE", "Suite": null, "City": "NEW ORLEANS", "State": "LA", "Zip": "70124", "PhoneNumber": "504-207-0162", "BusinessType": "1106 - GROCERY (EXC CONVENIENCE) STORES" }, "geometry": { "type": "Point", "coordinates": [ -90.10541963639281, 30.005017634301009 ] } },
{ "type": "Feature", "properties": { "OBJECTID": 467370, "OwnerName": "TWO-O-SEVEN, LLC", "BusinessName": "LAKEVIEW MINI MART", "Address": "207 W HARRISON AVE", "Suite": null, "City": "NEW ORLEANS", "State": "LA", "Zip": "70124", "PhoneNumber": "504-872-0522", "BusinessType": "1101 - CONVENIENCE STORES" }, "geometry": { "type": "Point", "coordinates": [ -90.117321255614172, 30.00589074771467 ] } },
{ "type": "Feature", "properties": { "OBJECTID": 467371, "OwnerName": "CANGELOSI JR, LAWRENCE", "BusinessName": "LARRY & LARRY GROCERY", "Address": "1340 ANNETTE ST", "Suite": null, "City": "NEW ORLEANS", "State": "LA", "Zip": "70116", "PhoneNumber": null, "BusinessType": "1101 - CONVENIENCE STORES" }, "geometry": { "type": "Point", "coordinates": [ -90.062963511271548, 29.970084731391481 ] } },
{ "type": "Feature", "properties": { "OBJECTID": 467372, "OwnerName": "LATINOS MARKET, LLC", "BusinessName": "LATINOS MARKET", "Address": "13235 CHEF MENTEUR HWY", "Suite": "STE D2", "City": "NEW ORLEANS", "State": "LA", "Zip": "70129", "PhoneNumber": null, "BusinessType": "1106 - GROCERY (EXC CONVENIENCE) STORES" }, "geometry": { "type": "Point", "coordinates": [ -89.929135616567265, 30.032236173164975 ] } },
{ "type": "Feature", "properties": { "OBJECTID": 467373, "OwnerName": "LAWSONS GROCERY & DELI  INC", "BusinessName": "LAWSON'S GROCERY & DELI", "Address": "1625 NEWTON ST", "Suite": null, "City": "NEW ORLEANS", "State": "LA", "Zip": "70114-2604", "PhoneNumber": "504-368-4958", "BusinessType": "1101 - CONVENIENCE STORES" }, "geometry": { "type": "Point", "coordinates": [ -90.040075931899764, 29.944971979582601 ] } },
{ "type": "Feature", "properties": { "OBJECTID": 467374, "OwnerName": "LB SAINTS FOOD STORE CORP.", "BusinessName": "LB SAINTS FOOD STORE", "Address": "2601 N VILLERE ST", "Suite": null, "City": "NEW ORLEANS", "State": "LA", "Zip": "70117", "PhoneNumber": "504-945-7799", "BusinessType": "1101 - CONVENIENCE STORES" }, "geometry": { "type": "Point", "coordinates": [ -90.04910578751614, 29.972033373326514 ] } },
{ "type": "Feature", "properties": { "OBJECTID": 467375, "OwnerName": "SHAED LLC", "BusinessName": "LOUISA MINI MART", "Address": "3423 LOUISA ST", "Suite": null, "City": "NEW ORLEANS", "State": "LA", "Zip": "70126", "PhoneNumber": "504-392-5513", "BusinessType": "1101 - CONVENIENCE STORES" }, "geometry": { "type": "Point", "coordinates": [ -90.034488229445572, 29.992567882867739 ] } },
{ "type": "Feature", "properties": { "OBJECTID": 467376, "OwnerName": "LOUISIANA MEAT LLC", "BusinessName": "LOUISIANA MEAT MARKET", "Address": "2136 LOUISIANA AVE", "Suite": null, "City": "NEW ORLEANS", "State": "LA", "Zip": "70115", "PhoneNumber": "504-259-3651", "BusinessType": "1101 - CONVENIENCE STORES" }, "geometry": { "type": "Point", "coordinates": [ -90.09422429210521, 29.933558016895589 ] } },
{ "type": "Feature", "properties": { "OBJECTID": 467377, "OwnerName": "SOUL'S SEAFOOD LLC", "BusinessName": "LOUISIANA PRIDE SEAFOOD", "Address": "4418 DOWNMAN RD", "Suite": null, "City": "NEW ORLEANS", "State": "LA", "Zip": "70126", "PhoneNumber": "504-248-7522", "BusinessType": "1104 - FISH & SEAFOOD MARKETS" }, "geometry": { "type": "Point", "coordinates": [ -90.021708529496777, 30.014775030981056 ] } },
{ "type": "Feature", "properties": { "OBJECTID": 467378, "OwnerName": "AMERA,INC", "BusinessName": "LOUISIANA SUPER SAVER", "Address": "1641 LOUISIANA AVE", "Suite": "A", "City": "NEW ORLEANS", "State": "LA", "Zip": "70115", "PhoneNumber": "504-891-6670", "BusinessType": "1106 - GROCERY (EXC CONVENIENCE) STORES" }, "geometry": { "type": "Point", "coordinates": [ -90.091631734139128, 29.92916918297869 ] } },
{ "type": "Feature", "properties": { "OBJECTID": 467379, "OwnerName": "TIEN VIET VU", "BusinessName": "LUCY'S SUPERMARKET", "Address": "3443 PARIS AVE", "Suite": null, "City": "NEW ORLEANS", "State": "LA", "Zip": "70122", "PhoneNumber": null, "BusinessType": "1106 - GROCERY (EXC CONVENIENCE) STORES" }, "geometry": { "type": "Point", "coordinates": [ -90.07301789423822, 29.992885183192087 ] } },
{ "type": "Feature", "properties": { "OBJECTID": 467380, "OwnerName": "THU HUONG INC", "BusinessName": "LY'S SUPERMARKET", "Address": "14401 PELTIER DR", "Suite": "130", "City": "NEW ORLEANS", "State": "LA", "Zip": "70129", "PhoneNumber": "504-254-4380", "BusinessType": "1101 - CONVENIENCE STORES" }, "geometry": { "type": "Point", "coordinates": [ -89.912066147198985, 30.039183783685559 ] } },
{ "type": "Feature", "properties": { "OBJECTID": 467381, "OwnerName": "M LANGENSTEIN & SONS INC", "BusinessName": "M LANGENSTEIN & SONS INC", "Address": "1330 ARABELLA ST", "Suite": null, "City": "NEW ORLEANS", "State": "LA", "Zip": "70115-4205", "PhoneNumber": "504-899-5001", "BusinessType": "1105 - FULL SVC RESTAURANTS (TABLE SERVICE)" }, "geometry": { "type": "Point", "coordinates": [ -90.11670470498855, 29.926626736055937 ] } },
{ "type": "Feature", "properties": { "OBJECTID": 467382, "OwnerName": "BIRDIES MAGAZINE", "BusinessName": "M M A NEW ORLEANS LLC", "Address": "6050 MAGAZINE ST", "Suite": null, "City": "NEW ORLEANS", "State": "LA", "Zip": "70118", "PhoneNumber": null, "BusinessType": "1101 - CONVENIENCE STORES" }, "geometry": { "type": "Point", "coordinates": [ -90.122885731537551, 29.922299081600816 ] } },
{ "type": "Feature", "properties": { "OBJECTID": 467383, "OwnerName": "BAO CORP", "BusinessName": "MAGAZINE DISCOUNT MARKET", "Address": "2000 MAGAZINE ST", "Suite": null, "City": "NEW ORLEANS", "State": "LA", "Zip": "70130-5018", "PhoneNumber": "504-348-7617", "BusinessType": "1101 - CONVENIENCE STORES" }, "geometry": { "type": "Point", "coordinates": [ -90.074652351855718, 29.930853531636231 ] } },
{ "type": "Feature", "properties": { "OBJECTID": 467384, "OwnerName": "FRANK'S DISCOUNT LLC", "BusinessName": "MAGNOLIA MEAT MARKET", "Address": "900 N BROAD ST", "Suite": null, "City": "NEW ORLEANS", "State": "LA", "Zip": "70119", "PhoneNumber": "504-827-1281", "BusinessType": "1106 - GROCERY (EXC CONVENIENCE) STORES" }, "geometry": { "type": "Point", "coordinates": [ -90.081336610690116, 29.972096466227541 ] } },
{ "type": "Feature", "properties": { "OBJECTID": 467385, "OwnerName": "JAOUMARI, INC", "BusinessName": "MAGNOLIA SUPERMARKET", "Address": "2201 MAGNOLIA ST", "Suite": null, "City": "NEW ORLEANS", "State": "LA", "Zip": "70113", "PhoneNumber": "504-523-0017", "BusinessType": "1101 - CONVENIENCE STORES" }, "geometry": { "type": "Point", "coordinates": [ -90.088267302362297, 29.942792436571519 ] } },
{ "type": "Feature", "properties": { "OBJECTID": 467386, "OwnerName": "ALZARA INC", "BusinessName": "MAGNOLIA SUPERMARKET", "Address": "6100 N CLAIBORNE AVE", "Suite": null, "City": "NEW ORLEANS", "State": "LA", "Zip": "70117", "PhoneNumber": "504-628-6781", "BusinessType": "1101 - CONVENIENCE STORES" }, "geometry": { "type": "Point", "coordinates": [ -90.008742662016061, 29.964337231060796 ] } },
{ "type": "Feature", "properties": { "OBJECTID": 467387, "OwnerName": "ALLADDIN ENTERPRISES, INC.", "BusinessName": "MAGNOLIA SUPERMARKET # 3", "Address": "4131 ST CLAUDE AVE", "Suite": null, "City": "NEW ORLEANS", "State": "LA", "Zip": "70117-5336", "PhoneNumber": "504-948-2224", "BusinessType": "1101 - CONVENIENCE STORES" }, "geometry": { "type": "Point", "coordinates": [ -90.033606593076627, 29.965625338999537 ] } },
{ "type": "Feature", "properties": { "OBJECTID": 467388, "OwnerName": "VIEN MAN INC", "BusinessName": "MAMA'S COOKING", "Address": "2722 N TONTI ST", "Suite": null, "City": "NEW ORLEANS", "State": "LA", "Zip": "70117", "PhoneNumber": null, "BusinessType": "1101 - CONVENIENCE STORES" }, "geometry": { "type": "Point", "coordinates": [ -90.046917508466095, 29.981273777034488 ] } },
{ "type": "Feature", "properties": { "OBJECTID": 467389, "OwnerName": "TSY CORPORATION", "BusinessName": "MAN CHU FOOD STORE & CHINESE  FOOD", "Address": "1413 N CLAIBORNE AVE", "Suite": null, "City": "NEW ORLEANS", "State": "LA", "Zip": "70116", "PhoneNumber": "504-947-5507", "BusinessType": "1101 - CONVENIENCE STORES" }, "geometry": { "type": "Point", "coordinates": [ -90.06865988211463, 29.969892541770328 ] } },
{ "type": "Feature", "properties": { "OBJECTID": 467390, "OwnerName": "DAVID Y. MARTIN JR., LLC", "BusinessName": "MARTIN WINE CELLAR", "Address": "3827 BARONNE ST", "Suite": null, "City": "NEW ORLEANS", "State": "LA", "Zip": "70115", "PhoneNumber": "504-897-0191", "BusinessType": "1101 - CONVENIENCE STORES" }, "geometry": { "type": "Point", "coordinates": [ -90.096759500935576, 29.929135085263347 ] } },
{ "type": "Feature", "properties": { "OBJECTID": 467391, "OwnerName": "TEN-O-ONE CORPORATION", "BusinessName": "MATASSA'S MARKET", "Address": "1001 DAUPHINE ST", "Suite": null, "City": "NEW ORLEANS", "State": "LA", "Zip": "70116", "PhoneNumber": "504-412-8700", "BusinessType": "1101 - CONVENIENCE STORES" }, "geometry": { "type": "Point", "coordinates": [ -90.064357803439293, 29.961789081768007 ] } },
{ "type": "Feature", "properties": { "OBJECTID": 467392, "OwnerName": "VINA FOOD INC.", "BusinessName": "MATT'S GROCERY 2", "Address": "4655 MICHOUD BLVD", "Suite": null, "City": "NEW ORLEANS", "State": "LA", "Zip": "70129", "PhoneNumber": null, "BusinessType": "1106 - GROCERY (EXC CONVENIENCE) STORES" }, "geometry": { "type": "Point", "coordinates": [ -89.927778207905661, 30.032576046552911 ] } },
{ "type": "Feature", "properties": { "OBJECTID": 467393, "OwnerName": "MCKENZIE FOOD STORE,INC", "BusinessName": "MCKENZIE FOOD STORE", "Address": "8638 BELFAST ST", "Suite": null, "City": "NEW ORLEANS", "State": "LA", "Zip": "70118", "PhoneNumber": "504-866-4970", "BusinessType": "1106 - GROCERY (EXC CONVENIENCE) STORES" }, "geometry": { "type": "Point", "coordinates": [ -90.123197589995883, 29.962114347706223 ] } },
{ "type": "Feature", "properties": { "OBJECTID": 467394, "OwnerName": "MID CITY MARKET,L.L.C.", "BusinessName": "MID CITY MARKET", "Address": "2526 ST BERNARD AVE", "Suite": null, "City": "NEW ORLEANS", "State": "LA", "Zip": "70119", "PhoneNumber": "504-324-9273", "BusinessType": "1104 - FISH & SEAFOOD MARKETS" }, "geometry": { "type": "Point", "coordinates": [ -90.071449071823324, 29.982083405195311 ] } },
{ "type": "Feature", "properties": { "OBJECTID": 467395, "OwnerName": "ZEGAR, INC", "BusinessName": "MIKE'S DISCOUNT 2", "Address": "3600 MACARTHUR BLVD", "Suite": "B-2", "City": "NEW ORLEANS", "State": "LA", "Zip": "70114", "PhoneNumber": "504-368-1350", "BusinessType": "1101 - CONVENIENCE STORES" }, "geometry": { "type": "Point", "coordinates": [ -90.020639725896643, 29.925316567451919 ] } },
{ "type": "Feature", "properties": { "OBJECTID": 467396, "OwnerName": "NADA M, INC", "BusinessName": "MIKE'S FOOD MART", "Address": "3935 ST CLAUDE AVE", "Suite": null, "City": "NEW ORLEANS", "State": "LA", "Zip": "70117", "PhoneNumber": "225-573-4326", "BusinessType": "1101 - CONVENIENCE STORES" }, "geometry": { "type": "Point", "coordinates": [ -90.0354169808748, 29.965899379564561 ] } },
{ "type": "Feature", "properties": { "OBJECTID": 467397, "OwnerName": "MMBS INC.", "BusinessName": "MIKE'S FOOD STORE", "Address": "3708 ST CLAUDE AVE", "Suite": null, "City": "NEW ORLEANS", "State": "LA", "Zip": "70117", "PhoneNumber": "504-390-7943", "BusinessType": "1106 - GROCERY (EXC CONVENIENCE) STORES" }, "geometry": { "type": "Point", "coordinates": [ -90.03778547716756, 29.966017663187248 ] } },
{ "type": "Feature", "properties": { "OBJECTID": 467398, "OwnerName": "H.A.T., INC", "BusinessName": "MINH CANH SUPERMARKET", "Address": "4661 ALCEE FORTIER BLVD", "Suite": "C&D", "City": "NEW ORLEANS", "State": "LA", "Zip": "70129", "PhoneNumber": null, "BusinessType": "1101 - CONVENIENCE STORES" }, "geometry": { "type": "Point", "coordinates": [ -89.911706155856081, 30.037540629643519 ] } },
{ "type": "Feature", "properties": { "OBJECTID": 467399, "OwnerName": "MINI MARKET LA CONSENTIDA LLC", "BusinessName": "MINI MARKET LA CONSENTIDA LLC", "Address": "10715 CHEF MENTEUR HWY", "Suite": "STE A", "City": "NEW ORLEANS", "State": "LA", "Zip": "70127", "PhoneNumber": null, "BusinessType": "1101 - CONVENIENCE STORES" }, "geometry": { "type": "Point", "coordinates": [ -89.960450915048824, 30.020878530563223 ] } },
{ "type": "Feature", "properties": { "OBJECTID": 467400, "OwnerName": "N'AWLINS GOODS, LLC", "BusinessName": "N'AWLINS GOODS", "Address": "901 CONVENTION CENTER BLVD", "Suite": "STE 114", "City": "NEW ORLEANS", "State": "LA", "Zip": "70130", "PhoneNumber": null, "BusinessType": "1101 - CONVENIENCE STORES" }, "geometry": { "type": "Point", "coordinates": [ -90.06475939939763, 29.941956775948693 ] } },
{ "type": "Feature", "properties": { "OBJECTID": 467401, "OwnerName": "QUYNH NGUYEN, INC.", "BusinessName": "NATAL'S SUPERMARKET", "Address": "7342 CHEF MENTEUR HWY", "Suite": null, "City": "NEW ORLEANS", "State": "LA", "Zip": "70126", "PhoneNumber": "504-362-3911", "BusinessType": "1101 - CONVENIENCE STORES" }, "geometry": { "type": "Point", "coordinates": [ -90.001739059240691, 30.011739043564202 ] } },
{ "type": "Feature", "properties": { "OBJECTID": 467402, "OwnerName": "XUAN TUYEN, INC", "BusinessName": "NEIGHBORHOOD DISCOUNT SUPERMARKET", "Address": "3222 BARONNE ST", "Suite": null, "City": "NEW ORLEANS", "State": "LA", "Zip": "70115", "PhoneNumber": "504-899-4954", "BusinessType": "1101 - CONVENIENCE STORES" }, "geometry": { "type": "Point", "coordinates": [ -90.076989294556824, 29.951922709288411 ] } },
{ "type": "Feature", "properties": { "OBJECTID": 467403, "OwnerName": "NESBIT'S MAGAZINE STREET MARKET, LLC", "BusinessName": "NESBIT'S MAGAZINE STREET MARKET", "Address": "301 MAGAZINE ST", "Suite": null, "City": "NEW ORLEANS", "State": "LA", "Zip": "70130", "PhoneNumber": null, "BusinessType": "1101 - CONVENIENCE STORES" }, "geometry": { "type": "Point", "coordinates": [ -90.067831029862703, 29.950467848895542 ] } },
{ "type": "Feature", "properties": { "OBJECTID": 467404, "OwnerName": "NESBIT'S JULIA ST MARKET,LLC", "BusinessName": "NESBITS JULIA ST MARKET", "Address": "333 JULIA ST", "Suite": null, "City": "NEW ORLEANS", "State": "LA", "Zip": "70130", "PhoneNumber": null, "BusinessType": "1101 - CONVENIENCE STORES" }, "geometry": { "type": "Point", "coordinates": [ -90.066932898000303, 29.944944834433969 ] } },
{ "type": "Feature", "properties": { "OBJECTID": 467405, "OwnerName": "NEW IMAGE SUPERMARKET IN", "BusinessName": "NEW IMAGE MARKET", "Address": "1216 BIENVILLE ST", "Suite": null, "City": "NEW ORLEANS", "State": "LA", "Zip": "70112", "PhoneNumber": null, "BusinessType": "1101 - CONVENIENCE STORES" }, "geometry": { "type": "Point", "coordinates": [ -90.07248240590512, 29.958067413660267 ] } },
{ "type": "Feature", "properties": { "OBJECTID": 467406, "OwnerName": "NEW ORLEANS FISH HOUSECO", "BusinessName": "NEW ORLEANS FISH HOUSE", "Address": "P.O BOX 4126", "Suite": null, "City": "NEW ORLEANS", "State": "LA", "Zip": "70178", "PhoneNumber": "504-821-9700", "BusinessType": "0135 - FISH & SEAFOOD WHLSRS" }, "geometry": { "type": "Point", "coordinates": [ -90.076989294556824, 29.951922709288411 ] } },
{ "type": "Feature", "properties": { "OBJECTID": 467407, "OwnerName": "NEW ORLEANS FISH HOUSE L", "BusinessName": "NEW ORLEANS FISH HOUSE LLC", "Address": "921  DUPRE ST", "Suite": null, "City": "NEW ORLEANS", "State": "LA", "Zip": "70125", "PhoneNumber": "504-821-9700", "BusinessType": "0135 - FISH & SEAFOOD WHLSRS" }, "geometry": { "type": "Point", "coordinates": [ -90.076989294556824, 29.951922709288411 ] } },
{ "type": "Feature", "properties": { "OBJECTID": 467408, "OwnerName": "NEW ORLEANS FOOD CO-OP,INC", "BusinessName": "NEW ORLEANS FOOD CO-OP", "Address": "2372 ST. CLAUDE AVENUE", "Suite": "STE. 110", "City": "NEW ORLEANS", "State": "LA", "Zip": "70117", "PhoneNumber": "504-324-6849", "BusinessType": "0138 - GROCERY & RELATED PRDCTS WHLSRS, OTH" }, "geometry": { "type": "Point", "coordinates": [ -90.076989294556824, 29.951922709288411 ] } },
{ "type": "Feature", "properties": { "OBJECTID": 467409, "OwnerName": "NEW ORLEANS SAUSAGE COMPANY", "BusinessName": "NEW ORLEANS SAUSAGE COMPANY", "Address": "2525 HAMILTON ST", "Suite": null, "City": "NEW ORLEANS", "State": "LA", "Zip": "70118", "PhoneNumber": null, "BusinessType": "1103 - MEAT MARKETS" }, "geometry": { "type": "Point", "coordinates": [ -90.12748771286391, 29.963772003862616 ] } },
{ "type": "Feature", "properties": { "OBJECTID": 467410, "OwnerName": "KHP,LLC", "BusinessName": "NEWTON CORNER MART", "Address": "1600 NEWTON ST", "Suite": null, "City": "NEW ORLEANS", "State": "LA", "Zip": "70114", "PhoneNumber": null, "BusinessType": "1106 - GROCERY (EXC CONVENIENCE) STORES" }, "geometry": { "type": "Point", "coordinates": [ -90.040495089397496, 29.945326564598879 ] } },
{ "type": "Feature", "properties": { "OBJECTID": 467411, "OwnerName": "LIEM & TEIN PARTNERSHIP", "BusinessName": "NEWTON DISCOUNT MARKET", "Address": "1424 NEWTON ST", "Suite": null, "City": "NEW ORLEANS", "State": "LA", "Zip": "70114", "PhoneNumber": "504-368-3692", "BusinessType": "1101 - CONVENIENCE STORES" }, "geometry": { "type": "Point", "coordinates": [ -90.04239423996134, 29.945398866127839 ] } },
{ "type": "Feature", "properties": { "OBJECTID": 467412, "OwnerName": "NEXT DOOR GROCERY,LLC", "BusinessName": "NEXT DOOR GROCERY", "Address": "2733 BARONNE ST", "Suite": null, "City": "NEW ORLEANS", "State": "LA", "Zip": "70113", "PhoneNumber": null, "BusinessType": "1101 - CONVENIENCE STORES" }, "geometry": { "type": "Point", "coordinates": [ -90.087191811038821, 29.932805949003843 ] } },
{ "type": "Feature", "properties": { "OBJECTID": 467413, "OwnerName": "BACKUP JIC LLC", "BusinessName": "NICKS SUPERMARKET", "Address": "746 WASHINGTON AVE", "Suite": null, "City": "NEW ORLEANS", "State": "LA", "Zip": "70130", "PhoneNumber": null, "BusinessType": "1106 - GROCERY (EXC CONVENIENCE) STORES" }, "geometry": { "type": "Point", "coordinates": [ -90.080635412263121, 29.923533111713514 ] } },
{ "type": "Feature", "properties": { "OBJECTID": 467414, "OwnerName": "CUONG THAO INC", "BusinessName": "NIKKI FOOD STORE", "Address": "3900 ST CLAUDE AVE", "Suite": null, "City": "NEW ORLEANS", "State": "LA", "Zip": "70117", "PhoneNumber": "504-945-6655", "BusinessType": "1106 - GROCERY (EXC CONVENIENCE) STORES" }, "geometry": { "type": "Point", "coordinates": [ -90.036329126920776, 29.965571407892487 ] } },
{ "type": "Feature", "properties": { "OBJECTID": 467415, "OwnerName": "NOLA DISCOUNT, INC", "BusinessName": "NOLA DISCOUNT FOOD STORE", "Address": "2204 L B LANDRY AVE", "Suite": null, "City": "NEW ORLEANS", "State": "LA", "Zip": "70114", "PhoneNumber": null, "BusinessType": "1101 - CONVENIENCE STORES" }, "geometry": { "type": "Point", "coordinates": [ -90.041588442270125, 29.929638574716098 ] } },
{ "type": "Feature", "properties": { "OBJECTID": 467416, "OwnerName": "XUAN HUY,LLC", "BusinessName": "NOLA FOOD MART", "Address": "943 WHITNEY AVE", "Suite": null, "City": "NEW ORLEANS", "State": "LA", "Zip": "70114", "PhoneNumber": "985-856-6088", "BusinessType": "1101 - CONVENIENCE STORES" }, "geometry": { "type": "Point", "coordinates": [ -90.041062020336554, 29.945352416292206 ] } },
{ "type": "Feature", "properties": { "OBJECTID": 467417, "OwnerName": "NOLA STYLE ENTERPRISE LLC", "BusinessName": "NOLA STYLE DE VIE", "Address": "635 CANAL ST", "Suite": null, "City": "NEW ORLEANS", "State": "LA", "Zip": "70130", "PhoneNumber": null, "BusinessType": "1101 - CONVENIENCE STORES" }, "geometry": { "type": "Point", "coordinates": [ -90.068762481288758, 29.953296670626806 ] } },
{ "type": "Feature", "properties": { "OBJECTID": 467418, "OwnerName": "NOLA SUNDRY, LLC", "BusinessName": "NOLA SUNDRY", "Address": "1450 POYDRAS ST", "Suite": "STE 120", "City": "NEW ORLEANS", "State": "LA", "Zip": "70112", "PhoneNumber": "504-667-6932", "BusinessType": "1101 - CONVENIENCE STORES" }, "geometry": { "type": "Point", "coordinates": [ -90.078348211519398, 29.951267900740621 ] } },
{ "type": "Feature", "properties": { "OBJECTID": 467419, "OwnerName": "M & J FOOD STORE INC", "BusinessName": "NOLA VILLAGE MARKET", "Address": "6100 ST CLAUDE AVE", "Suite": null, "City": "NEW ORLEANS", "State": "LA", "Zip": "70117", "PhoneNumber": "504-377-0670", "BusinessType": "1106 - GROCERY (EXC CONVENIENCE) STORES" }, "geometry": { "type": "Point", "coordinates": [ -90.011105556545147, 29.959686103791963 ] } },
{ "type": "Feature", "properties": { "OBJECTID": 467420, "OwnerName": "AAA BUI,INC", "BusinessName": "NORTH BROAD SUPERMARKET", "Address": "1901 N BROAD ST", "Suite": null, "City": "NEW ORLEANS", "State": "LA", "Zip": "70119", "PhoneNumber": "504-945-7369", "BusinessType": "1106 - GROCERY (EXC CONVENIENCE) STORES" }, "geometry": { "type": "Point", "coordinates": [ -90.071705469346824, 29.983691972988776 ] } },
{ "type": "Feature", "properties": { "OBJECTID": 467421, "OwnerName": "NS DISCOUNT EXPRESS LLC", "BusinessName": "NS DISCOUNT EXPRESS", "Address": "6041 BULLARD AVE", "Suite": null, "City": "NEW ORLEANS", "State": "LA", "Zip": "70128", "PhoneNumber": null, "BusinessType": "1101 - CONVENIENCE STORES" }, "geometry": { "type": "Point", "coordinates": [ -89.959491208141245, 30.045109414721537 ] } },
{ "type": "Feature", "properties": { "OBJECTID": 467422, "OwnerName": "OLIVE STOP LLC", "BusinessName": "OLIVE STOP", "Address": "8841 OLIVE ST", "Suite": null, "City": "NEW ORLEANS", "State": "LA", "Zip": "70118", "PhoneNumber": null, "BusinessType": "1101 - CONVENIENCE STORES" }, "geometry": { "type": "Point", "coordinates": [ -90.119367393437031, 29.968523422168438 ] } },
{ "type": "Feature", "properties": { "OBJECTID": 467423, "OwnerName": "OLYMPIA FOOD STORE INC", "BusinessName": "OLYMPIA FOOD STORE INC", "Address": "301 S OLYMPIA ST", "Suite": null, "City": "NEW ORLEANS", "State": "LA", "Zip": "70119", "PhoneNumber": "504-231-4883", "BusinessType": "1106 - GROCERY (EXC CONVENIENCE) STORES" }, "geometry": { "type": "Point", "coordinates": [ -90.107691684145635, 29.976411409416396 ] } },
{ "type": "Feature", "properties": { "OBJECTID": 467424, "OwnerName": "OMNI LLC", "BusinessName": "OMNI LLC", "Address": "333 CANAL ST", "Suite": "STE 333", "City": "NEW ORLEANS", "State": "LA", "Zip": "70130", "PhoneNumber": "814-521-9012", "BusinessType": "1101 - CONVENIENCE STORES" }, "geometry": { "type": "Point", "coordinates": [ -90.06509666733217, 29.950860511481867 ] } },
{ "type": "Feature", "properties": { "OBJECTID": 467425, "OwnerName": "OPELOUSAS POINT SUPERMARKET, INC", "BusinessName": "OPELOUSAS POINT SUPERMARKET", "Address": "601 OPELOUSAS AVE", "Suite": null, "City": "NEW ORLEANS", "State": "LA", "Zip": "70114", "PhoneNumber": null, "BusinessType": "1101 - CONVENIENCE STORES" }, "geometry": { "type": "Point", "coordinates": [ -90.050421905135025, 29.948514295700694 ] } },
{ "type": "Feature", "properties": { "OBJECTID": 467426, "OwnerName": "ORLEANS CENTER MARKET LLC", "BusinessName": "ORLEANS CENTER MARKET", "Address": "2707 ORLEANS AVE", "Suite": null, "City": "NEW ORLEANS", "State": "LA", "Zip": "70119", "PhoneNumber": null, "BusinessType": "1101 - CONVENIENCE STORES" }, "geometry": { "type": "Point", "coordinates": [ -90.082886342940355, 29.971298506485521 ] } },
{ "type": "Feature", "properties": { "OBJECTID": 467427, "OwnerName": "OVERFLOW MARKET & CAFE", "BusinessName": "OVERFLOW MARKET & CAFE", "Address": "432 N GALVEZ ST", "Suite": null, "City": "NEW ORLEANS", "State": "LA", "Zip": "70116", "PhoneNumber": null, "BusinessType": "1106 - GROCERY (EXC CONVENIENCE) STORES" }, "geometry": { "type": "Point", "coordinates": [ -90.079262573450222, 29.965102390889538 ] } },
{ "type": "Feature", "properties": { "OBJECTID": 467428, "OwnerName": "P & J OYSTER CO", "BusinessName": "P & J OYSTER CO", "Address": "1039 TOULOUSE ST", "Suite": null, "City": "NEW ORLEANS", "State": "LA", "Zip": "70112", "PhoneNumber": "504-523-2651", "BusinessType": "0135 - FISH & SEAFOOD WHLSRS" }, "geometry": { "type": "Point", "coordinates": [ -90.068895456545249, 29.95962519443022 ] } },
{ "type": "Feature", "properties": { "OBJECTID": 467429, "OwnerName": "ROYAL PALACE INVESTMENTS,LLC", "BusinessName": "PALACE TRUCK STOP & CASINO", "Address": "12170 OLD GENTILLY RD", "Suite": null, "City": "NEW ORLEANS", "State": "LA", "Zip": "70129", "PhoneNumber": null, "BusinessType": "1101 - CONVENIENCE STORES" }, "geometry": { "type": "Point", "coordinates": [ -89.944983210580403, 30.012111544860986 ] } },
{ "type": "Feature", "properties": { "OBJECTID": 467430, "OwnerName": "SAINT GEORGE,LLC", "BusinessName": "PARAISO GROCERY", "Address": "3128 BANKS ST", "Suite": null, "City": "NEW ORLEANS", "State": "LA", "Zip": "70119", "PhoneNumber": null, "BusinessType": "1106 - GROCERY (EXC CONVENIENCE) STORES" }, "geometry": { "type": "Point", "coordinates": [ -90.09437163891738, 29.965858020912815 ] } },
{ "type": "Feature", "properties": { "OBJECTID": 467431, "OwnerName": "PIAZZA SR, VINCENT", "BusinessName": "PAUL PIAZZA & SON INC", "Address": "1552 ST LOUIS ST", "Suite": null, "City": "NEW ORLEANS", "State": "LA", "Zip": "70112", "PhoneNumber": "504-524-6011", "BusinessType": "0135 - FISH & SEAFOOD WHLSRS" }, "geometry": { "type": "Point", "coordinates": [ -90.07371376586299, 29.961238587474611 ] } },
{ "type": "Feature", "properties": { "OBJECTID": 467432, "OwnerName": "POEYFARRE MARKET LLC", "BusinessName": "POEYFARRE MARKET", "Address": "925 POEYFARRE ST", "Suite": null, "City": "NEW ORLEANS", "State": "LA", "Zip": "70130", "PhoneNumber": "504-522-5252", "BusinessType": "1101 - CONVENIENCE STORES" }, "geometry": { "type": "Point", "coordinates": [ -90.068486455331566, 29.941694279560814 ] } },
{ "type": "Feature", "properties": { "OBJECTID": 467433, "OwnerName": "POMES CHRIS             POMES BERTRAND", "BusinessName": "POMES SEAFOOD", "Address": "26064 CHEF MENTEUR HWY", "Suite": null, "City": "NEW ORLEANS", "State": "LA", "Zip": "70129", "PhoneNumber": "504-662-5026", "BusinessType": "0135 - FISH & SEAFOOD WHLSRS" }, "geometry": { "type": "Point", "coordinates": [ -89.742569856456043, 30.146836195095894 ] } },
{ "type": "Feature", "properties": { "OBJECTID": 467434, "OwnerName": "POPPA ENTERPRISES", "BusinessName": "POPPA'S SEAFOOD & DELI", "Address": "3311 N GALVEZ ST", "Suite": null, "City": "NEW ORLEANS", "State": "LA", "Zip": "70117", "PhoneNumber": "504-947-3373", "BusinessType": "1104 - FISH & SEAFOOD MARKETS" }, "geometry": { "type": "Point", "coordinates": [ -90.038217741155037, 29.977338645439243 ] } },
{ "type": "Feature", "properties": { "OBJECTID": 467435, "OwnerName": "PROJECT FOOD STORE      #2 INC", "BusinessName": "PROJECT FOOD STORE #2", "Address": "2238 MARTIN LUTHER KING JR BLVD", "Suite": null, "City": "NEW ORLEANS", "State": "LA", "Zip": "70113", "PhoneNumber": "504-586-1762", "BusinessType": "1101 - CONVENIENCE STORES" }, "geometry": { "type": "Point", "coordinates": [ -90.082568661225864, 29.942860681515707 ] } },
{ "type": "Feature", "properties": { "OBJECTID": 467436, "OwnerName": "PRYTANIA MART,LLC", "BusinessName": "PRYTANIA MART", "Address": "3636 PRYTANIA ST", "Suite": null, "City": "NEW ORLEANS", "State": "LA", "Zip": "70115", "PhoneNumber": null, "BusinessType": "1101 - CONVENIENCE STORES" }, "geometry": { "type": "Point", "coordinates": [ -90.094156019576232, 29.925506605721594 ] } },
{ "type": "Feature", "properties": { "OBJECTID": 467437, "OwnerName": "ROSEMARY & TRANG INC", "BusinessName": "QUARTER GROCERY & DELI", "Address": "836 BURGUNDY ST", "Suite": null, "City": "NEW ORLEANS", "State": "LA", "Zip": "70116", "PhoneNumber": "504-529-2702", "BusinessType": "1101 - CONVENIENCE STORES" }, "geometry": { "type": "Point", "coordinates": [ -90.066028246976401, 29.961328059028215 ] } },
{ "type": "Feature", "properties": { "OBJECTID": 467438, "OwnerName": "ALL ABOUT CONVENIENCE, LLC", "BusinessName": "QUICK STOP SHOP", "Address": "2301 ST CLAUDE AVE", "Suite": null, "City": "NEW ORLEANS", "State": "LA", "Zip": "70117", "PhoneNumber": null, "BusinessType": "1101 - CONVENIENCE STORES" }, "geometry": { "type": "Point", "coordinates": [ -90.054241836445698, 29.969012037346655 ] } },
{ "type": "Feature", "properties": { "OBJECTID": 467439, "OwnerName": "AMEER, LLC", "BusinessName": "QUICKIES DISCOUNT", "Address": "1535 FRANKLIN AVE", "Suite": null, "City": "NEW ORLEANS", "State": "LA", "Zip": "70117", "PhoneNumber": "504-259-3655", "BusinessType": "1101 - CONVENIENCE STORES" }, "geometry": { "type": "Point", "coordinates": [ -90.048156460637358, 29.973748870562126 ] } },
{ "type": "Feature", "properties": { "OBJECTID": 467440, "OwnerName": "RAINBOW MAGAZINE LLC", "BusinessName": "RAINBOW GROCERY", "Address": "4837 MAGAZINE ST", "Suite": null, "City": "NEW ORLEANS", "State": "LA", "Zip": "70115", "PhoneNumber": null, "BusinessType": "1106 - GROCERY (EXC CONVENIENCE) STORES" }, "geometry": { "type": "Point", "coordinates": [ -90.107071150220094, 29.92059460482638 ] } },
{ "type": "Feature", "properties": { "OBJECTID": 467441, "OwnerName": "RC FOUNTAIN SERVICES OF LOUISIANA, INC.", "BusinessName": "RC FOUNTAIN SERVICES OF LOUISIANA", "Address": "3443 ESPLANADE AVE", "Suite": "134", "City": "NEW ORLEANS", "State": "LA", "Zip": "70119", "PhoneNumber": "504-822-2250", "BusinessType": "0138 - GROCERY & RELATED PRDCTS WHLSRS, OTH" }, "geometry": { "type": "Point", "coordinates": [ -90.088304905963156, 29.983228588043641 ] } },
{ "type": "Feature", "properties": { "OBJECTID": 467442, "OwnerName": "TBN SEAFOOD CORPORATION", "BusinessName": "READ SEAFOOD", "Address": "7340 READ BLVD", "Suite": null, "City": "NEW ORLEANS", "State": "LA", "Zip": "70127", "PhoneNumber": "504-377-8892", "BusinessType": "1101 - CONVENIENCE STORES" }, "geometry": { "type": "Point", "coordinates": [ -89.980786717108813, 30.04234859275147 ] } },
{ "type": "Feature", "properties": { "OBJECTID": 467443, "OwnerName": "LINA GROCERY INC", "BusinessName": "READ SUPERMARKET", "Address": "7045 READ BLVD", "Suite": "A", "City": "NEW ORLEANS", "State": "LA", "Zip": "70127", "PhoneNumber": "504-244-0741", "BusinessType": "1101 - CONVENIENCE STORES" }, "geometry": { "type": "Point", "coordinates": [ -90.076989294556824, 29.951922709288411 ] } },
{ "type": "Feature", "properties": { "OBJECTID": 467444, "OwnerName": "JEETA,LLC", "BusinessName": "RED ZONE", "Address": "2530  CANAL ST", "Suite": null, "City": "NEW ORLEANS", "State": "LA", "Zip": "70119", "PhoneNumber": "616-337-0247", "BusinessType": "1106 - GROCERY (EXC CONVENIENCE) STORES" }, "geometry": { "type": "Point", "coordinates": [ -90.085840850946212, 29.964169847380287 ] } },
{ "type": "Feature", "properties": { "OBJECTID": 467445, "OwnerName": "THUMBS UP RACE SEVEN, LLC.", "BusinessName": "RED ZONE I", "Address": "2025 ST CHARLES AVE", "Suite": null, "City": "NEW ORLEANS", "State": "LA", "Zip": "70130", "PhoneNumber": null, "BusinessType": "1101 - CONVENIENCE STORES" }, "geometry": { "type": "Point", "coordinates": [ -90.0794303631411, 29.935157810828251 ] } },
{ "type": "Feature", "properties": { "OBJECTID": 467446, "OwnerName": "REDBERRY'S HOT PLATES & PO BOYS", "BusinessName": "REDBERRY'S HOT PLATES & PO BOYS", "Address": "9103 FIG ST", "Suite": null, "City": "NEW ORLEANS", "State": "LA", "Zip": "70118", "PhoneNumber": "504-264-0226", "BusinessType": "1101 - CONVENIENCE STORES" }, "geometry": { "type": "Point", "coordinates": [ -90.124214245798271, 29.967202643520693 ] } },
{ "type": "Feature", "properties": { "OBJECTID": 467447, "OwnerName": "RD AMERICA, LLC", "BusinessName": "RESTAURANT DEPOT", "Address": "1111 S BROAD ST", "Suite": null, "City": "NEW ORLEANS", "State": "LA", "Zip": "70125", "PhoneNumber": "504-822-8881", "BusinessType": "0138 - GROCERY & RELATED PRDCTS WHLSRS, OTH" }, "geometry": { "type": "Point", "coordinates": [ -90.096752672849235, 29.954871356058081 ] } },
{ "type": "Feature", "properties": { "OBJECTID": 467448, "OwnerName": "SUNSHINE DISCOUNT FOOD INC", "BusinessName": "RICHARD'S FOOD STORE", "Address": "2001 N ROCHEBLAVE ST", "Suite": null, "City": "NEW ORLEANS", "State": "LA", "Zip": "70119", "PhoneNumber": "504-944-2891", "BusinessType": "1101 - CONVENIENCE STORES" }, "geometry": { "type": "Point", "coordinates": [ -90.064811286358193, 29.981384268849876 ] } },
{ "type": "Feature", "properties": { "OBJECTID": 467449, "OwnerName": "A. B. & R. FINE FOODS LLC", "BusinessName": "RIVER FINE FOODS STORE", "Address": "1403 PATTERSON ST", "Suite": null, "City": "NEW ORLEANS", "State": "LA", "Zip": "70114", "PhoneNumber": "504-362-4795", "BusinessType": "1101 - CONVENIENCE STORES" },